{
"rows":[
{"ADDRESS": " 150 Gum Hollow Rd", "CITY": " Oak Ridge", "COUNTY": "", "LAT": "35.98248", "LON": "-84.327086", "NAME": " Oak Ridge Country Club", "PHONE": " (865) 483-1031", "STATE": " TN", "TYPE": "GC", "WFO": "MRX"},
{"ADDRESS": " 101 Centennial Dr", "CITY": " Oak Ridge", "COUNTY": "", "LAT": "36.01793", "LON": "-84.178123", "NAME": " TN Centennial Golf Course", "PHONE": " (865) 483-2291", "STATE": " TN", "TYPE": "GC", "WFO": "MRX"},
{"ADDRESS": " 2009 Village Camp Road Route 3", "CITY": " Pikeville", "COUNTY": "", "LAT": "35.621463", "LON": "-85.22179", "NAME": " Fall Creek Falls State Park Golf Course", "PHONE": " (423) 881-5706", "STATE": " TN", "TYPE": "GC", "WFO": "MRX"},
{"ADDRESS": " 1700 Louisville Rd", "CITY": " Alcoa", "COUNTY": "", "LAT": "35.78443", "LON": "-83.999912", "NAME": " Green Meadow Country Club", "PHONE": " (865) 982-0391", "STATE": " TN", "TYPE": "GC", "WFO": "MRX"},
{"ADDRESS": " 4411 Legneds Way", "CITY": " Maryville", "COUNTY": "", "LAT": "35.73468", "LON": "-84.00994", "NAME": " Lambert Acres Golf Club-Beast West Course", "PHONE": " (865) 984-4260", "STATE": " TN", "TYPE": "GC", "WFO": "MRX"},
{"ADDRESS": " 3402 Tuckaleechee Pike", "CITY": " Maryville", "COUNTY": "", "LAT": "35.752513", "LON": "-83.888693", "NAME": " Lambert Acres Golf Club-Orange/Red Course", "PHONE": " (865) 982-9838", "STATE": " TN", "TYPE": "GC", "WFO": "MRX"},
{"ADDRESS": " 802 Lee Shirley Rd", "CITY": " Maryville", "COUNTY": "", "LAT": "35.626743", "LON": "-84.15232", "NAME": " The Golf Club", "PHONE": " (865) 856-4400", "STATE": " TN", "TYPE": "GC", "WFO": "MRX"},
{"ADDRESS": " 3705 Lengends Way", "CITY": " Maryville", "COUNTY": "", "LAT": "35.673205", "LON": "-84.083888", "NAME": " Royal Oaks Golf Course", "PHONE": " (865) 984-4260", "STATE": " TN", "TYPE": "GC", "WFO": "MRX"},
{"ADDRESS": " 3920 Singleton Station Rd", "CITY": " Rockford", "COUNTY": "", "LAT": "35.829562", "LON": "-83.951224", "NAME": " Egwani Farms Golf Course", "PHONE": " (865) 970-7132", "STATE": " TN", "TYPE": "GC", "WFO": "MRX"},
{"ADDRESS": " 4101 Singleton Station Rd", "CITY": " Rockford", "COUNTY": "", "LAT": "35.834478", "LON": "-83.956442", "NAME": " Pine Lakes Golf Club", "PHONE": " (865) 970-9018", "STATE": " TN", "TYPE": "GC", "WFO": "MRX"},
{"ADDRESS": " 702 Country Club Dr", "CITY": " Townsend", "COUNTY": "", "LAT": "35.670001", "LON": "-83.80848", "NAME": " Laurel Valley Country Club", "PHONE": " (865) 738-3134", "STATE": " TN", "TYPE": "GC", "WFO": "MRX"},
{"ADDRESS": " 3855 Dalton Pike", "CITY": " Cleveland", "COUNTY": "", "LAT": "35.104193", "LON": "-84.868183", "NAME": " Cherokee Springs Golf Course", "PHONE": " (423) 559-3348", "STATE": " TN", "TYPE": "GC", "WFO": "MRX"},
{"ADDRESS": " 345 Kyle Ln", "CITY": " Cleveland", "COUNTY": "", "LAT": "35.140802", "LON": "-84.892189", "NAME": " Cleveland Country Club", "PHONE": " (423) 336-3566", "STATE": " TN", "TYPE": "GC", "WFO": "MRX"},
{"ADDRESS": " 4179 Benton Pike", "CITY": " Cleveland", "COUNTY": "", "LAT": "35.171355", "LON": "-84.78391", "NAME": " Flagstone Championship Golf Course", "PHONE": " (423) 339-9748", "STATE": " TN", "TYPE": "GC", "WFO": "MRX"},
{"ADDRESS": " 1001 The Clubhouse Dr", "CITY": " LaFollette", "COUNTY": "", "LAT": "36.407963", "LON": "-84.10331", "NAME": " The Greens at Deerfield", "PHONE": " (423) 566-0040", "STATE": " TN", "TYPE": "GC", "WFO": "MRX"},
{"ADDRESS": " 317 Country Club Rd", "CITY": " LaFollette", "COUNTY": "", "LAT": "36.385581", "LON": "-84.101", "NAME": " LaFollette Country Club", "PHONE": " (423) 562-9130", "STATE": " TN", "TYPE": "GC", "WFO": "MRX"},
{"ADDRESS": " 185 Buck Van Huss Dr", "CITY": " Elizabethton", "COUNTY": "", "LAT": "36.318829", "LON": "-82.268203", "NAME": " Elizabethton Municipal Golf Course", "PHONE": " (423) 542-8051", "STATE": " TN", "TYPE": "GC", "WFO": "MRX"},
{"ADDRESS": " 1903 E Unaka Ave", "CITY": " Johnson City", "COUNTY": "", "LAT": "36.341365", "LON": "-82.336837", "NAME": " Johnson City Country Club", "PHONE": " (423) 928-5161", "STATE": " TN", "TYPE": "GC", "WFO": "MRX"},
{"ADDRESS": " 1790 Buffalo Rd", "CITY": " Johnson City", "COUNTY": "", "LAT": "36.299892", "LON": "-82.346847", "NAME": " Pine Oaks Golf Club", "PHONE": " (423) 926-5451", "STATE": " TN", "TYPE": "GC", "WFO": "MRX"},
{"ADDRESS": " 330 Woodlake Blvd", "CITY": " Tazewell", "COUNTY": "", "LAT": "36.400529", "LON": "-83.558394", "NAME": " Woodlake Golf Club", "PHONE": " (423) 626-6010", "STATE": " TN", "TYPE": "GC", "WFO": "MRX"},
{"ADDRESS": " 1220 Golf Course Rd", "CITY": " Newport", "COUNTY": "", "LAT": "35.930894", "LON": "-83.18867", "NAME": " Smokey Mountain Country Club", "PHONE": " (423) 623-7321", "STATE": " TN", "TYPE": "GC", "WFO": "MRX"},
{"ADDRESS": " 970 Hwy 11 W", "CITY": " Bean Station", "COUNTY": "", "LAT": "36.323703", "LON": "-83.333483", "NAME": " Clinchview Golf & Country Club", "PHONE": " (865) 993-2892", "STATE": " TN", "TYPE": "GC", "WFO": "MRX"},
{"ADDRESS": " 910 Graysburg Hills Rd", "CITY": " Chuckey", "COUNTY": "", "LAT": "36.308816", "LON": "-82.706183", "NAME": " Graysburg Hills Golf Course", "PHONE": " (423) 234-8061", "STATE": " TN", "TYPE": "GC", "WFO": "MRX"},
{"ADDRESS": " 90 Chuckey Hwy", "CITY": " Chuckey", "COUNTY": "", "LAT": "36.202139", "LON": "-82.716128", "NAME": " Twin Creeks Golf Course", "PHONE": " (423) 257-5192", "STATE": " TN", "TYPE": "GC", "WFO": "MRX"},
{"ADDRESS": " 615 Lick Hollow Rd", "CITY": " Greeneville", "COUNTY": "", "LAT": "36.130768", "LON": "-82.865714", "NAME": " Andrew Johnson Golf Club", "PHONE": " (423) 636-1476", "STATE": " TN", "TYPE": "GC", "WFO": "MRX"},
{"ADDRESS": " 7925 Horton Hwy", "CITY": " Greeneville", "COUNTY": "", "LAT": "36.34523", "LON": "-82.818176", "NAME": " Baileyton Golf Club", "PHONE": " (423) 234-5131", "STATE": " TN", "TYPE": "GC", "WFO": "MRX"},
{"ADDRESS": " Route 10 Kinter Park Ln", "CITY": " Greeneville", "COUNTY": "", "LAT": "36.162877", "LON": "-82.833751", "NAME": " Kinser Park Golf Course", "PHONE": " (423) 639-6406", "STATE": " TN", "TYPE": "GC", "WFO": "MRX"},
{"ADDRESS": " 1325 E Allens Bridge Rd", "CITY": " Greeneville", "COUNTY": "", "LAT": "36.098487", "LON": "-82.852963", "NAME": " Link Hills Country Club", "PHONE": " (423) 639-2961", "STATE": " TN", "TYPE": "GC", "WFO": "MRX"},
{"ADDRESS": " 5605 Asheville Hwy", "CITY": " Greeneville", "COUNTY": "", "LAT": "36.080118", "LON": "-82.865615", "NAME": " River Trace Golf Course", "PHONE": " (423) 639-1622", "STATE": " TN", "TYPE": "GC", "WFO": "MRX"},
{"ADDRESS": " 1635 Doyal Dr", "CITY": " Morristown", "COUNTY": "", "LAT": "36.214306", "LON": "-83.325942", "NAME": " The Country Club", "PHONE": " (423) 581-2763", "STATE": " TN", "TYPE": "GC", "WFO": "MRX"},
{"ADDRESS": " 450 Alpha Valley Home Rd", "CITY": " Morristown", "COUNTY": "", "LAT": "36.170419", "LON": "-83.370135", "NAME": " Millstone Golf Club", "PHONE": " (423) 586-4000", "STATE": " TN", "TYPE": "GC", "WFO": "MRX"},
{"ADDRESS": " 1180 Valley Home Rd", "CITY": " Morristown", "COUNTY": "", "LAT": "36.190978", "LON": "-83.318838", "NAME": " Morristown Golf & Country Club", "PHONE": " (423) 586-9953", "STATE": " TN", "TYPE": "GC", "WFO": "MRX"},
{"ADDRESS": " 5203 Old Mission Rd", "CITY": " Chattanooga", "COUNTY": "", "LAT": "35.019719", "LON": "-85.215427", "NAME": " Brainerd Golf Course", "PHONE": " (423) 855-2692", "STATE": " TN", "TYPE": "GC", "WFO": "MRX"},
{"ADDRESS": " 406 Brown Rd", "CITY": " Chattanooga", "COUNTY": "", "LAT": "35.011616", "LON": "-85.197476", "NAME": " Brown Acres Golf Course", "PHONE": " (423) 855-2680", "STATE": " TN", "TYPE": "GC", "WFO": "MRX"},
{"ADDRESS": " 1511 Riverview Rd", "CITY": " Chattanooga", "COUNTY": "", "LAT": "35.068804", "LON": "-85.280637", "NAME": " Chattanooga Golf & Country Club", "PHONE": " (423) 266-1049", "STATE": " TN", "TYPE": "GC", "WFO": "MRX"},
{"ADDRESS": " 7 Radmoor Ln", "CITY": " Chattanooga", "COUNTY": "", "LAT": "35.014602", "LON": "-85.179292", "NAME": " Concord Golf Club", "PHONE": " (423) 894-4536", "STATE": " TN", "TYPE": "GC", "WFO": "MRX"},
{"ADDRESS": " 100 Council Fire Dr", "CITY": " Chattanooga", "COUNTY": "", "LAT": "34.986562", "LON": "-85.173046", "NAME": " Council Fire Golf Club", "PHONE": " (423) 499-6300", "STATE": " TN", "TYPE": "GC", "WFO": "MRX"},
{"ADDRESS": " 5808 Clubhouse Dr", "CITY": " Chattanooga", "COUNTY": "", "LAT": "35.141019", "LON": "-85.153239", "NAME": " Eagle Bluff Golf Club", "PHONE": " (423) 326-0202", "STATE": " TN", "TYPE": "GC", "WFO": "MRX"},
{"ADDRESS": " 381 Moccasin Bend Rd", "CITY": " Chattanooga", "COUNTY": "", "LAT": "35.051123", "LON": "-85.330171", "NAME": " Moccasin Bend Golf Club", "PHONE": " (423) 267-3585", "STATE": " TN", "TYPE": "GC", "WFO": "MRX"},
{"ADDRESS": " 8411 Harrison Bay Rd", "CITY": " Harrison", "COUNTY": "", "LAT": "35.17443", "LON": "-85.116284", "NAME": " Bear Trace at Harrison Bay State Park", "PHONE": " (423) 326-0885", "STATE": " TN", "TYPE": "GC", "WFO": "MRX"},
{"ADDRESS": " 5900 Hixson Pike", "CITY": " Hixson", "COUNTY": "", "LAT": "35.149221", "LON": "-85.211605", "NAME": " Creeks Bend Golf Club", "PHONE": " (423) 842-5911", "STATE": " TN", "TYPE": "GC", "WFO": "MRX"},
{"ADDRESS": " 180 Valleybrook Rd", "CITY": " Hixson", "COUNTY": "", "LAT": "35.15861", "LON": "-85.204257", "NAME": " Valleybrook Golf & Country Club", "PHONE": " (423) 842-4646", "STATE": " TN", "TYPE": "GC", "WFO": "MRX"},
{"ADDRESS": " 9603 Old Lee Hwy", "CITY": " Ooltewah", "COUNTY": "", "LAT": "35.107996", "LON": "-85.063401", "NAME": " The Honors Course", "PHONE": " (423) 238-4272", "STATE": " TN", "TYPE": "GC", "WFO": "MRX"},
{"ADDRESS": " 809 James Blvd", "CITY": " Signal Mountain", "COUNTY": "", "LAT": "35.130911", "LON": "-85.341035", "NAME": " Signal Mountain Golf & Country Club", "PHONE": " (423) 886-2557", "STATE": " TN", "TYPE": "GC", "WFO": "MRX"},
{"ADDRESS": " 9104 Brow Lake Rd", "CITY": " Soddy Daisy", "COUNTY": "", "LAT": "35.248506", "LON": "-85.220562", "NAME": " Montlake Golf Course", "PHONE": " (423) 332-3111", "STATE": " TN", "TYPE": "GC", "WFO": "MRX"},
{"ADDRESS": " 450 Silver Lake Rd", "CITY": " Church Hill", "COUNTY": "", "LAT": "36.513018", "LON": "-82.69354", "NAME": " Silver Lake Golf Club", "PHONE": " (423) 357-9940", "STATE": " TN", "TYPE": "GC", "WFO": "MRX"},
{"ADDRESS": " 1901 Meadowview Pkwy", "CITY": " Kingsport", "COUNTY": "", "LAT": "36.509381", "LON": "-82.567976", "NAME": " Cattails at Meadowview Golf Course", "PHONE": " (423) 578-6624", "STATE": " TN", "TYPE": "GC", "WFO": "MRX"},
{"ADDRESS": " 535 Island Rd", "CITY": " Kingsport", "COUNTY": "", "LAT": "36.561391", "LON": "-82.414209", "NAME": " Old Island Golf & Residential Community", "PHONE": " (423) 279-1700", "STATE": " TN", "TYPE": "GC", "WFO": "MRX"},
{"ADDRESS": " 2320 Pendragon Rd", "CITY": " Kingsport", "COUNTY": "", "LAT": "36.544897", "LON": "-82.608841", "NAME": " Ridgefields Country Club", "PHONE": " (423) 246-4179", "STATE": " TN", "TYPE": "GC", "WFO": "MRX"},
{"ADDRESS": " 1687 Fall Creek Rd", "CITY": " Kingsport", "COUNTY": "", "LAT": "36.506324", "LON": "-82.478245", "NAME": " Warriors Path State Park Golf Course", "PHONE": " (423) 323-4990", "STATE": " TN", "TYPE": "GC", "WFO": "MRX"},
{"ADDRESS": " 352 Guntown Rd", "CITY": " Rogersville", "COUNTY": "", "LAT": "36.387021", "LON": "-82.981106", "NAME": " McDonald Golf Club & Driving Range", "PHONE": " (423) 272-1477", "STATE": " TN", "TYPE": "GC", "WFO": "MRX"},
{"ADDRESS": " 704 Harrison Ferry Rd", "CITY": " Baneberry", "COUNTY": "", "LAT": "36.044721", "LON": "-83.265553", "NAME": " Baneberry Golf & Resort", "PHONE": " (865) 674-2500", "STATE": " TN", "TYPE": "GC", "WFO": "MRX"},
{"ADDRESS": " 1247 Stonewall Jackson Dr", "CITY": " Dandridge", "COUNTY": "", "LAT": "36.042653", "LON": "-83.405433", "NAME": " Dandridge Golf & Country Club", "PHONE": " (865) 397-2655", "STATE": " TN", "TYPE": "GC", "WFO": "MRX"},
{"ADDRESS": " 735 Constitution Dr", "CITY": " Jefferson City", "COUNTY": "", "LAT": "36.058283", "LON": "-83.48068", "NAME": " Patriot Hills Golf Club", "PHONE": " (865) 475-4466", "STATE": " TN", "TYPE": "GC", "WFO": "MRX"},
{"ADDRESS": " 824 Milligan Way", "CITY": " New Market", "COUNTY": "", "LAT": "36.090263", "LON": "-83.564559", "NAME": " Lost Creek Golf Club", "PHONE": " (865) 475-9661", "STATE": " TN", "TYPE": "GC", "WFO": "MRX"},
{"ADDRESS": " 3331 Leadvale Rd", "CITY": " White Pine", "COUNTY": "", "LAT": "36.084357", "LON": "-83.267757", "NAME": " White Pine Golf Club", "PHONE": " (865) 674-9986", "STATE": " TN", "TYPE": "GC", "WFO": "MRX"},
{"ADDRESS": " 300 Clubhouse Ln", "CITY": " Mountain City", "COUNTY": "", "LAT": "36.424459", "LON": "-81.787112", "NAME": " Roan Valley Golf Estates", "PHONE": " (423) 727-7931", "STATE": " TN", "TYPE": "GC", "WFO": "MRX"},
{"ADDRESS": " 12284 N Fox Den Dr", "CITY": " Farragut", "COUNTY": "", "LAT": "35.877", "LON": "-84.08434", "NAME": " Fox Den Country Club", "PHONE": " (865) 966-5533", "STATE": " TN", "TYPE": "GC", "WFO": "MRX"},
{"ADDRESS": " 2910 Cunningham Rd", "CITY": " Knoxville", "COUNTY": "", "LAT": "36.06674", "LON": "-83.949", "NAME": " Beaver Brook Golf & Country Club", "PHONE": " (865) 689-4479", "STATE": " TN", "TYPE": "GC", "WFO": "MRX"},
{"ADDRESS": " 5311 Beverly Park Cir", "CITY": " Knoxville", "COUNTY": "", "LAT": "36.061061", "LON": "-83.891064", "NAME": " Beverly Park", "PHONE": " (865) 689-6445", "STATE": " TN", "TYPE": "GC", "WFO": "MRX"},
{"ADDRESS": " 5205 Lyons View Dr", "CITY": " Knoxville", "COUNTY": "", "LAT": "35.932968", "LON": "-83.987401", "NAME": " Cherokee Country Club", "PHONE": " (865) 584 -4840", "STATE": " TN", "TYPE": "GC", "WFO": "MRX"},
{"ADDRESS": " 10909 S Northshore Dr", "CITY": " Knoxville", "COUNTY": "", "LAT": "35.861896", "LON": "-84.12869", "NAME": " Concord Park", "PHONE": " (865) 966-9103", "STATE": " TN", "TYPE": "GC", "WFO": "MRX"},
{"ADDRESS": " 9891 Sherrill Blvd", "CITY": " Knoxville", "COUNTY": "", "LAT": "35.913334", "LON": "-84.114915", "NAME": " Dead Horse Lake Golf Course", "PHONE": " (865) 693-5270", "STATE": " TN", "TYPE": "GC", "WFO": "MRX"},
{"ADDRESS": " 5200 Holston Hills Rd", "CITY": " Knoxville", "COUNTY": "", "LAT": "35.99531", "LON": "-83.842003", "NAME": " Holston Hills Country Club", "PHONE": " (865) 523-4119", "STATE": " TN", "TYPE": "GC", "WFO": "MRX"},
{"ADDRESS": " 3925 Schaad Rd", "CITY": " Knoxville", "COUNTY": "", "LAT": "35.991874", "LON": "-84.040402", "NAME": " Knoxville Golf Course", "PHONE": " (865) 691-7143", "STATE": " TN", "TYPE": "GC", "WFO": "MRX"},
{"ADDRESS": " 8522 N Ruggles Ferry Pike", "CITY": " Knoxville", "COUNTY": "", "LAT": "36.037024", "LON": "-83.771003", "NAME": " Ruggles Ferry Golf Club", "PHONE": " (865) 932-4450", "STATE": " TN", "TYPE": "GC", "WFO": "MRX"},
{"ADDRESS": " 6101 Wise Springs Rd", "CITY": " Knoxville", "COUNTY": "", "LAT": "36.09204", "LON": "-83.847558", "NAME": " Three Ridges Golf Course", "PHONE": " (865) 687-4797", "STATE": " TN", "TYPE": "GC", "WFO": "MRX"},
{"ADDRESS": " 3113 Valley View Dr", "CITY": " Knoxville", "COUNTY": "", "LAT": "36.01761", "LON": "-83.911115", "NAME": " Whittle Springs Golf Course", "PHONE": " (865) 525-1022", "STATE": " TN", "TYPE": "GC", "WFO": "MRX"},
{"ADDRESS": " 2351 Dandridge Ave", "CITY": " Knoxville", "COUNTY": "", "LAT": "35.97028", "LON": "-83.884292", "NAME": " The Wee Course", "PHONE": " (865) 546-5828", "STATE": " TN", "TYPE": "GC", "WFO": "MRX"},
{"ADDRESS": " 12003 Kingston Pike", "CITY": " Knoxville", "COUNTY": "", "LAT": "35.877", "LON": "-84.08434", "NAME": " Willow Creek Golf  Club", "PHONE": " (865) 675-0100", "STATE": " TN", "TYPE": "GC", "WFO": "MRX"},
{"ADDRESS": " 500 Executive Meadows Dr", "CITY": " Lenoir City", "COUNTY": "", "LAT": "35.824482", "LON": "-84.291399", "NAME": " Executive Meadows Golf Course", "PHONE": " (865) 988-8331", "STATE": " TN", "TYPE": "GC", "WFO": "MRX"},
{"ADDRESS": " 1299 Oak Chase Blvd", "CITY": " Lenoir City", "COUNTY": "", "LAT": "35.8633", "LON": "-84.253812", "NAME": " The Medalist at Avalon", "PHONE": " (865) 986-4653", "STATE": " TN", "TYPE": "GC", "WFO": "MRX"},
{"ADDRESS": " 1800 Oakum Ct", "CITY": " Lenoir City", "COUNTY": "", "LAT": "35.820787", "LON": "-84.225786", "NAME": " Rarity Point Golf Course", "PHONE": " (865) 988-0370", "STATE": " TN", "TYPE": "GC", "WFO": "MRX"},
{"ADDRESS": " 101 Club Dr", "CITY": " Loudon", "COUNTY": "", "LAT": "35.759446", "LON": "-84.363524", "NAME": " Riverview Golf Course", "PHONE": " (865) 986-6972", "STATE": " TN", "TYPE": "GC", "WFO": "MRX"},
{"ADDRESS": " 450 Clubhouse Pt", "CITY": " Loudon", "COUNTY": "", "LAT": "35.729958", "LON": "-84.259925", "NAME": " Tanasi Golf Club", "PHONE": " (865) 458-4707", "STATE": " TN", "TYPE": "GC", "WFO": "MRX"},
{"ADDRESS": " 700 Old Club Rd", "CITY": " Loudon", "COUNTY": "", "LAT": "35.715668", "LON": "-84.353919", "NAME": " The TN National Golf Club", "PHONE": " (888) 486-6285", "STATE": " TN", "TYPE": "GC", "WFO": "MRX"},
{"ADDRESS": " 200 Toqua Golf Club Way", "CITY": " Loudon", "COUNTY": "", "LAT": "35.715668", "LON": "-84.353919", "NAME": " Toqua Golf Club", "PHONE": " (865) 458-6546", "STATE": " TN", "TYPE": "GC", "WFO": "MRX"},
{"ADDRESS": " 2040 Sweeten Cove Rd", "CITY": " South Pttsburg", "COUNTY": "", "LAT": "35.053983", "LON": "-85.724659", "NAME": " Sequatchie Valley Golf & Country Club", "PHONE": " (423) 837-6532", "STATE": " TN", "TYPE": "GC", "WFO": "MRX"},
{"ADDRESS": " 387 Country Rd", "CITY": " Athens", "COUNTY": "", "LAT": "35.172433", "LON": "-84.632592", "NAME": " Ridgewood Golf Club", "PHONE": " (423) 263-5672", "STATE": " TN", "TYPE": "GC", "WFO": "MRX"},
{"ADDRESS": " 705 Country Rd 105", "CITY": " Athens", "COUNTY": "", "LAT": "35.172433", "LON": "-84.632592", "NAME": " White Oaks Golf Course", "PHONE": " (423) 745-3349", "STATE": " TN", "TYPE": "GC", "WFO": "MRX"},
{"ADDRESS": " 123 Country Club Ln", "CITY": " Niota", "COUNTY": "", "LAT": "35.514858", "LON": "-84.555882", "NAME": " Springbrook Golf & Country Club", "PHONE": " (423) 568-2161", "STATE": " TN", "TYPE": "GC", "WFO": "MRX"},
{"ADDRESS": " 296 Lakehaven Cir", "CITY": " Decatur", "COUNTY": "", "LAT": "35.375113", "LON": "-84.896599", "NAME": " Lakehaven Golf & Country Club", "PHONE": " (423) 334-3654", "STATE": " TN", "TYPE": "GC", "WFO": "MRX"},
{"ADDRESS": " 180 Golf Course Rd", "CITY": " Madisonville", "COUNTY": "", "LAT": "35.530458", "LON": "-84.345443", "NAME": " Madisonville Golf Course", "PHONE": " (423) 442-6423", "STATE": " TN", "TYPE": "GC", "WFO": "MRX"},
{"ADDRESS": " Hwy 72 Tellico Lake", "CITY": " Vonore", "COUNTY": "", "LAT": "35.50099", "LON": "-84.125379", "NAME": " Rarity Bay on Lake Tellico", "PHONE": " (423) 884-3030", "STATE": " TN", "TYPE": "GC", "WFO": "MRX"},
{"ADDRESS": " 5765 Hwy 64", "CITY": " Copperhill", "COUNTY": "", "LAT": "35.025286", "LON": "-84.325242", "NAME": " Copper Basin Golf Club", "PHONE": " (423) 496-3579", "STATE": " TN", "TYPE": "GC", "WFO": "MRX"},
{"ADDRESS": " 315 Payne Ln", "CITY": " Evensville", "COUNTY": "", "LAT": "35.494718", "LON": "-84.81508", "NAME": " Dayton Golf & Country Club", "PHONE": " (423) 775-2313", "STATE": " TN", "TYPE": "GC", "WFO": "MRX"},
{"ADDRESS": " 201 Westberry Heights Dr", "CITY": " Harriman", "COUNTY": "", "LAT": "35.947283", "LON": "-84.51294", "NAME": " Emory Golf & Country Club", "PHONE": " (865) 882-9977", "STATE": " TN", "TYPE": "GC", "WFO": "MRX"},
{"ADDRESS": " 736 Paint Rock Ferry Rd", "CITY": " Kingston", "COUNTY": "", "LAT": "35.850414", "LON": "-84.496203", "NAME": " Lakeside Golf Course", "PHONE": " (865) 376-5397", "STATE": " TN", "TYPE": "GC", "WFO": "MRX"},
{"ADDRESS": " 1099 Decatur Hwy", "CITY": " Kingston", "COUNTY": "", "LAT": "35.856645", "LON": "-84.53373", "NAME": " Southwest Point Golf Course", "PHONE": " (865) 376-5282", "STATE": " TN", "TYPE": "GC", "WFO": "MRX"},
{"ADDRESS": " 5159 Roan State Hwy", "CITY": " Rockwood", "COUNTY": "", "LAT": "35.874119", "LON": "-84.652701", "NAME": " Rockwood Municipal Golf Course", "PHONE": " (865) 354-2121", "STATE": " TN", "TYPE": "GC", "WFO": "MRX"},
{"ADDRESS": " 185 Fairway Ln", "CITY": " Oneida", "COUNTY": "", "LAT": "36.482268", "LON": "-84.530953", "NAME": " Crooked Creek Golf Course", "PHONE": " (423) 569-9506", "STATE": " TN", "TYPE": "GC", "WFO": "MRX"},
{"ADDRESS": " 123 Madison Dr", "CITY": " Dunlap", "COUNTY": "", "LAT": "35.441932", "LON": "-85.348383", "NAME": " Mt. Airy Golf & Athletic Club", "PHONE": " (423) 949-2582", "STATE": " TN", "TYPE": "GC", "WFO": "MRX"},
{"ADDRESS": " 9610 Kodak Rd", "CITY": " Kodak", "COUNTY": "", "LAT": "35.961724", "LON": "-83.676798", "NAME": " River Islands Golf Club", "PHONE": " (865) 933-0100", "STATE": " TN", "TYPE": "GC", "WFO": "MRX"},
{"ADDRESS": " 3919 E Parkway", "CITY": " Gatlinburg", "COUNTY": "", "LAT": "35.761722", "LON": "-83.347067", "NAME": " Bent Creek Golf Resort", "PHONE": " (865) 436-3947", "STATE": " TN", "TYPE": "GC", "WFO": "MRX"},
{"ADDRESS": " 520 Dollywood Ln", "CITY": " Pigeon Forge", "COUNTY": "", "LAT": "35.784808", "LON": "-83.540233", "NAME": " Gatlinburg Municipal Golf Course", "PHONE": " (865) 453-3912", "STATE": " TN", "TYPE": "GC", "WFO": "MRX"},
{"ADDRESS": " 1556 Old Knoxville Hwy", "CITY": " Sevierville", "COUNTY": "", "LAT": "35.905398", "LON": "-83.58903", "NAME": " Eagles Landing Golf Club", "PHONE": " (865) 429-4223", "STATE": " TN", "TYPE": "GC", "WFO": "MRX"},
{"ADDRESS": " 685 Chris Haven Dr", "CITY": " Seymour", "COUNTY": "", "LAT": "35.855622", "LON": "-83.81303", "NAME": " Bays Mountain Golf Course", "PHONE": " (865) 577-8172", "STATE": " TN", "TYPE": "GC", "WFO": "MRX"},
{"ADDRESS": " 1045 Creekside Village Way", "CITY": " Seymour", "COUNTY": "", "LAT": "35.885082", "LON": "-83.722741", "NAME": " Creekside Plantation", "PHONE": " (865) 577-4653", "STATE": " TN", "TYPE": "GC", "WFO": "MRX"},
{"ADDRESS": " 2354 Feathers Chapel Rd", "CITY": " Blountville", "COUNTY": "", "LAT": "36.520275", "LON": "-82.293243", "NAME": " Tri Cities Golf Course", "PHONE": " (423) 323-4178", "STATE": " TN", "TYPE": "GC", "WFO": "MRX"},
{"ADDRESS": " 6045 Old Jonesboro Rd", "CITY": " Bristol", "COUNTY": "", "LAT": "36.589638", "LON": "-82.120626", "NAME": " Country Club of Bristol", "PHONE": " (423) 652-1703", "STATE": " TN", "TYPE": "GC", "WFO": "MRX"},
{"ADDRESS": " 300 Holston Valley Golf Course Rd", "CITY": " Bristol", "COUNTY": "", "LAT": "36.551269", "LON": "-82.143328", "NAME": " Holston Valley Golf Course", "PHONE": " (423) 878-7400", "STATE": " TN", "TYPE": "GC", "WFO": "MRX"},
{"ADDRESS": " 20 Little Ln", "CITY": " Bristol", "COUNTY": "", "LAT": "36.575348", "LON": "-82.236602", "NAME": " Steel Creek Golf Course", "PHONE": " (423) 764-6411", "STATE": " TN", "TYPE": "GC", "WFO": "MRX"},
{"ADDRESS": " 535 Island Rd", "CITY": " Kingsport", "COUNTY": "", "LAT": "36.561391", "LON": "-82.414209", "NAME": " Old Island Golf & Residential Community", "PHONE": " (423) 279-1700", "STATE": " TN", "TYPE": "GC", "WFO": "MRX"},
{"ADDRESS": " 90 Country Club Dr", "CITY": " Unicoi", "COUNTY": "", "LAT": "36.231682", "LON": "-82.328286", "NAME": " Buffalo Valley Golf Course", "PHONE": " (423) 743-5021", "STATE": " TN", "TYPE": "GC", "WFO": "MRX"},
{"ADDRESS": " 1501 Ridges Club Dr", "CITY": " Jonesboro", "COUNTY": "", "LAT": "36.342242", "LON": "-82.458571", "NAME": " The Ridges Golf & Country Club", "PHONE": " (423) 913-3100", "STATE": " TN", "TYPE": "GC", "WFO": "MRX"},
{"ADDRESS": " Brooks Rd", "CITY": " Sneedville", "COUNTY": "", "LAT": "36.591015", "LON": "-83.457431", "NAME": " Monta Vista Golf Club", "PHONE": " (276) 861-4014", "STATE": " TN", "TYPE": "GC", "WFO": "MRX"},
{"ADDRESS": " 2760 Country Club Rd", "CITY": " Big Stone Gap", "COUNTY": "", "LAT": "36.885497", "LON": "-82.67791", "NAME": " Lonesome Pine Country Club", "PHONE": " (276) 523-0739", "STATE": " VA", "TYPE": "GC", "WFO": "MRX"},
{"ADDRESS": " Brooks Ln", "CITY": " Gibson  Station", "COUNTY": "", "LAT": "36.604305", "LON": "-83.597774", "NAME": " Monte Vista Golf Club", "PHONE": " (276) 861-4014", "STATE": " VA", "TYPE": "GC", "WFO": "MRX"},
{"ADDRESS": " Country Club Rd", "CITY": " Jonesville", "COUNTY": "", "LAT": "36.676091", "LON": "-83.164476", "NAME": " Cedar Hill Country Club", "PHONE": " (276) 346-1535", "STATE": " VA", "TYPE": "GC", "WFO": "MRX"},
{"ADDRESS": " 4708 Gravel Lick Rd", "CITY": " Castlewood", "COUNTY": "", "LAT": "36.856719", "LON": "-82.261807", "NAME": " Lake Bonaventure Country Club", "PHONE": " (276) 762-7618", "STATE": " VA", "TYPE": "GC", "WFO": "MRX"},
{"ADDRESS": " 19732 Harleywood Rd", "CITY": " Bristol", "COUNTY": "", "LAT": "36.664277", "LON": "-82.118248", "NAME": " Clear Creek Golf Club", "PHONE": " (276) 466-4833", "STATE": " VA", "TYPE": "GC", "WFO": "MRX"},
{"ADDRESS": " 16639 Old Jonesboro Rd", "CITY": " Bristol", "COUNTY": "", "LAT": "36.645675", "LON": "-82.061719", "NAME": " The Olde Farm Golf Club", "PHONE": " (276) 669-1042", "STATE": " VA", "TYPE": "GC", "WFO": "MRX"},
{"ADDRESS": " 22512 Clubhouse Ridge", "CITY": " Bristol", "COUNTY": "", "LAT": "36.623092", "LON": "-82.088242", "NAME": " The Virginian Golf Club", "PHONE": " (276) 645-7050", "STATE": " VA", "TYPE": "GC", "WFO": "MRX"},
{"ADDRESS": " 200 Clubhouse Dr", "CITY": " Abingdon", "COUNTY": "", "LAT": "36.694822", "LON": "-81.958362", "NAME": " Glenrochie Country Club", "PHONE": " (276) 628-3572", "STATE": " VA", "TYPE": "GC", "WFO": "MRX"},
{"ADDRESS": " 33315 Brittany Ln", "CITY": " Damascus", "COUNTY": "", "LAT": "36.650248", "LON": "-81.780369", "NAME": " Deer Field Golf Course", "PHONE": " (276) 475-5649", "STATE": " VA", "TYPE": "GC", "WFO": "MRX"},
{"ADDRESS": " 36012 Lee Hwy", "CITY": " Glade Springs", "COUNTY": "", "LAT": "36.779696", "LON": "-81.747158", "NAME": " Greenway Creek Golf Course", "PHONE": " (276) 429-2626", "STATE": " VA", "TYPE": "GC", "WFO": "MRX"},
{"ADDRESS": " 3046 Harshaw Rd", "CITY": " Murphy", "COUNTY": "", "LAT": "35.065976", "LON": "-83.98984", "NAME": " Cherokee Hills Golf & Country Club", "PHONE": " (828) 837-5853", "STATE": " NC", "TYPE": "GC", "WFO": "MRX"},
{"ADDRESS": " 260 Golf Course Rd", "CITY": " Hayesville", "COUNTY": "", "LAT": "34.999321", "LON": "-83.813443", "NAME": " Chatuge Shores Golf Couse", "PHONE": " (828) 389-8940", "STATE": " NC", "TYPE": "GC", "WFO": "MRX"},
{"ADDRESS": " 100 Mountain Harbour Dr", "CITY": " Hayesville", "COUNTY": "", "LAT": "35.035161", "LON": "-83.743071", "NAME": " Mountain Harbour Golf & Yacht Club", "PHONE": " (828) 389-4111", "STATE": " NC", "TYPE": "GC", "WFO": "MRX"},
{"ADDRESS": "721 Eastgate Loop Rd.", "CITY": "Chattanooga", "COUNTY": "", "LAT": "35.007264", "LON": "-85.210544", "NAME": "Virginia College-School of Business and Health", "PHONE": "4238932000", "STATE": "TN", "TYPE": "UV", "WFO": "MRX"},
{"ADDRESS": "5600 Brainerd Rd Ste G1", "CITY": "Chattanooga", "COUNTY": "", "LAT": "35.00988616", "LON": "-85.21573914", "NAME": "ITT Technical Institute-Chattanooga", "PHONE": "4235106800", "STATE": "TN", "TYPE": "UV", "WFO": "MRX"},
{"ADDRESS": "1208 Pointe Centre Drive", "CITY": "Chattanooga", "COUNTY": "", "LAT": "35.0129269", "LON": "-85.18713453", "NAME": "University of Phoenix-Chattanooga Campus", "PHONE": "4234992500", "STATE": "TN", "TYPE": "UV", "WFO": "MRX"},
{"ADDRESS": "3805 Brainerd Rd", "CITY": "Chattanooga", "COUNTY": "", "LAT": "35.02287653", "LON": "-85.24207508", "NAME": "Chattanooga College Medical Dental and Technical Careers", "PHONE": "4236240077", "STATE": "TN", "TYPE": "UV", "WFO": "MRX"},
{"ADDRESS": "1906  Union Avenue", "CITY": "Chattanooga", "COUNTY": "", "LAT": "35.03211968", "LON": "-85.27613383", "NAME": "Temple Baptist Seminary", "PHONE": "4234934221", "STATE": "TN", "TYPE": "UV", "WFO": "MRX"},
{"ADDRESS": "1815 Union Ave", "CITY": "Chattanooga", "COUNTY": "", "LAT": "35.03245602", "LON": "-85.2774205", "NAME": "Tennessee Temple University", "PHONE": "4234934100", "STATE": "TN", "TYPE": "UV", "WFO": "MRX"},
{"ADDRESS": "1815 McCallie Ave", "CITY": "Chattanooga", "COUNTY": "", "LAT": "35.036337", "LON": "-85.27464225", "NAME": "Richmont Graduate University", "PHONE": "4232264574", "STATE": "TN", "TYPE": "UV", "WFO": "MRX"},
{"ADDRESS": "615 McCallie Ave", "CITY": "Chattanooga", "COUNTY": "", "LAT": "35.04824726", "LON": "-85.29981228", "NAME": "The University of Tennessee at Chattanooga", "PHONE": "4234254111", "STATE": "TN", "TYPE": "UV", "WFO": "MRX"},
{"ADDRESS": "6020 Shallowford Road Suite 100", "CITY": "Chattanooga", "COUNTY": "", "LAT": "35.05129875", "LON": "-85.18834538", "NAME": "Miller-Motte Technical College-Chattanooga", "PHONE": "4.23511E+12", "STATE": "TN", "TYPE": "UV", "WFO": "MRX"},
{"ADDRESS": "4881 Taylor Cir", "CITY": "Collegedale", "COUNTY": "", "LAT": "35.049136", "LON": "-85.050878", "NAME": "Southern Adventist University", "PHONE": "4232362000", "STATE": "TN", "TYPE": "UV", "WFO": "MRX"},
{"ADDRESS": "4501 Amnicola Hwy", "CITY": "Chattanooga", "COUNTY": "", "LAT": "35.10020246", "LON": "-85.23738939", "NAME": "Chattanooga State Technical Community College", "PHONE": "4236974400", "STATE": "TN", "TYPE": "UV", "WFO": "MRX"},
{"ADDRESS": "1412 South Lee Hwy", "CITY": "Cleveland", "COUNTY": "", "LAT": "35.15361035", "LON": "-84.89525855", "NAME": "New Concepts School of Cosmetology", "PHONE": "4234783231", "STATE": "TN", "TYPE": "UV", "WFO": "MRX"},
{"ADDRESS": "900 Walker St NE", "CITY": "Cleveland", "COUNTY": "", "LAT": "35.16252795", "LON": "-84.8683263", "NAME": "Church of God Theological Seminary", "PHONE": "4234781131", "STATE": "TN", "TYPE": "UV", "WFO": "MRX"},
{"ADDRESS": "1120 N Ocoee St", "CITY": "Cleveland", "COUNTY": "", "LAT": "35.16616609", "LON": "-84.87001817", "NAME": "Lee University", "PHONE": "4236148000", "STATE": "TN", "TYPE": "UV", "WFO": "MRX"},
{"ADDRESS": "4600 E US 64", "CITY": "Murphy", "COUNTY": "", "LAT": "35.074659", "LON": "-83.964227", "NAME": "Tri-County Community College", "PHONE": "8288376810", "STATE": "NC", "TYPE": "UV", "WFO": "MRX"},
{"ADDRESS": "3535 Adkisson Drive", "CITY": "Cleveland", "COUNTY": "", "LAT": "35.20065621", "LON": "-84.8788354", "NAME": "Cleveland State Community College", "PHONE": "4234727141", "STATE": "TN", "TYPE": "UV", "WFO": "MRX"},
{"ADDRESS": "633 Mimosa Drive, NW", "CITY": "Cleveland", "COUNTY": "", "LAT": "35.20209304", "LON": "-84.85619759", "NAME": "Franklin Academy", "PHONE": "4234763742", "STATE": "TN", "TYPE": "UV", "WFO": "MRX"},
{"ADDRESS": "1635 Vo Tech Dr", "CITY": "Athens", "COUNTY": "", "LAT": "35.443807", "LON": "-84.630515", "NAME": "Tennessee Technology Center at Athens", "PHONE": "4237442814", "STATE": "TN", "TYPE": "UV", "WFO": "MRX"},
{"ADDRESS": "204 East College Street", "CITY": "Athens", "COUNTY": "", "LAT": "35.444939", "LON": "-84.592647", "NAME": "Tennessee Wesleyan College", "PHONE": "4237457504", "STATE": "TN", "TYPE": "UV", "WFO": "MRX"},
{"ADDRESS": "721 Bryan Drive", "CITY": "Dayton", "COUNTY": "", "LAT": "35.49572087", "LON": "-85.01659568", "NAME": "Bryan College", "PHONE": "4237752041", "STATE": "TN", "TYPE": "UV", "WFO": "MRX"},
{"ADDRESS": "225 Hiwassee College Drive", "CITY": "Madisonville", "COUNTY": "", "LAT": "35.55769122", "LON": "-84.3646311", "NAME": "Hiwassee College", "PHONE": "4234422001", "STATE": "TN", "TYPE": "UV", "WFO": "MRX"},
{"ADDRESS": "502 E Lamar Alexander Pky", "CITY": "Maryville", "COUNTY": "", "LAT": "35.75196916", "LON": "-83.96385315", "NAME": "Maryville College", "PHONE": "8659818000", "STATE": "TN", "TYPE": "UV", "WFO": "MRX"},
{"ADDRESS": "276 Patton Lane", "CITY": "Harriman", "COUNTY": "", "LAT": "35.8812905", "LON": "-84.62076584", "NAME": "Roane State Community College", "PHONE": "8653543000", "STATE": "TN", "TYPE": "UV", "WFO": "MRX"},
{"ADDRESS": "120 Center Park Dr", "CITY": "Knoxville", "COUNTY": "", "LAT": "35.90547228", "LON": "-84.12111924", "NAME": "Reuben-Allen College", "PHONE": "8659660400", "STATE": "TN", "TYPE": "UV", "WFO": "MRX"},
{"ADDRESS": "10208 Technology Dr", "CITY": "Knoxville", "COUNTY": "", "LAT": "35.91681712", "LON": "-84.12855475", "NAME": "ITT Technical Institute-Knoxville", "PHONE": "8656712800", "STATE": "TN", "TYPE": "UV", "WFO": "MRX"},
{"ADDRESS": "1745 Harriman Highway", "CITY": "Harriman", "COUNTY": "", "LAT": "35.9626511", "LON": "-84.52634765", "NAME": "Tennessee Technology Center at Harriman", "PHONE": "8658826703", "STATE": "TN", "TYPE": "UV", "WFO": "MRX"},
{"ADDRESS": "10915 Hardin Valley Road", "CITY": "Knoxville", "COUNTY": "", "LAT": "35.94810337", "LON": "-84.16687545", "NAME": "Pellissippi State Technical Community College", "PHONE": "8656946400", "STATE": "TN", "TYPE": "UV", "WFO": "MRX"},
{"ADDRESS": "1100 Liberty St", "CITY": "Knoxville", "COUNTY": "", "LAT": "35.95715111", "LON": "-83.96419339", "NAME": "Tennessee Technology Center at Knoxville", "PHONE": "8655465567", "STATE": "TN", "TYPE": "UV", "WFO": "MRX"},
{"ADDRESS": "Circle Park", "CITY": "Knoxville", "COUNTY": "", "LAT": "35.955093", "LON": "-83.92969601", "NAME": "The University of Tennessee", "PHONE": "8659741000", "STATE": "TN", "TYPE": "UV", "WFO": "MRX"},
{"ADDRESS": "3904 Lonas Road", "CITY": "Knoxville", "COUNTY": "", "LAT": "35.96162964", "LON": "-83.97478272", "NAME": "South College", "PHONE": "8652511800", "STATE": "TN", "TYPE": "UV", "WFO": "MRX"},
{"ADDRESS": "7900 Johnson Dr", "CITY": "Knoxville", "COUNTY": "", "LAT": "35.93715181", "LON": "-83.75033558", "NAME": "Johnson Bible College", "PHONE": "8655734517", "STATE": "TN", "TYPE": "UV", "WFO": "MRX"},
{"ADDRESS": "4704 Western Ave", "CITY": "Knoxville", "COUNTY": "", "LAT": "35.97548744", "LON": "-83.99584042", "NAME": "Tennessee School of Beauty of Knoxville Inc", "PHONE": "8655887878", "STATE": "TN", "TYPE": "UV", "WFO": "MRX"},
{"ADDRESS": "3203 Tazewell Pke", "CITY": "Knoxville", "COUNTY": "", "LAT": "36.02827279", "LON": "-83.92209976", "NAME": "Fountainhead College of Technology", "PHONE": "8656889422", "STATE": "TN", "TYPE": "UV", "WFO": "MRX"},
{"ADDRESS": "1646 S Russell Ave", "CITY": "Jefferson City", "COUNTY": "", "LAT": "36.122224", "LON": "-83.492183", "NAME": "Carson-Newman College", "PHONE": "8654712000", "STATE": "TN", "TYPE": "UV", "WFO": "MRX"},
{"ADDRESS": "821 W Louise Ave", "CITY": "Morristown", "COUNTY": "", "LAT": "36.20515454", "LON": "-83.29925921", "NAME": "Tennessee Technology Center at Morristown", "PHONE": "4235865771", "STATE": "TN", "TYPE": "UV", "WFO": "MRX"},
{"ADDRESS": "265 Elkins Rd", "CITY": "Jacksboro", "COUNTY": "", "LAT": "36.31741517", "LON": "-84.20898716", "NAME": "Tennessee Technology Center at Jacksboro", "PHONE": "4.23567E+12", "STATE": "TN", "TYPE": "UV", "WFO": "MRX"},
{"ADDRESS": "500 S Davy Crockett Parkway", "CITY": "Morristown", "COUNTY": "", "LAT": "36.21391367", "LON": "-83.26310471", "NAME": "Walters State Community College", "PHONE": "4235852600", "STATE": "TN", "TYPE": "UV", "WFO": "MRX"},
{"ADDRESS": "60 Shiloh Road", "CITY": "Greeneville", "COUNTY": "", "LAT": "36.17255833", "LON": "-82.76171581", "NAME": "Tusculum College", "PHONE": "4236367300", "STATE": "TN", "TYPE": "UV", "WFO": "MRX"},
{"ADDRESS": "355 Scott High Drive", "CITY": "Huntsville", "COUNTY": "", "LAT": "36.40847944", "LON": "-84.53036993", "NAME": "Tennessee Technology Center at Oneida-Huntsville", "PHONE": "4236634900", "STATE": "TN", "TYPE": "UV", "WFO": "MRX"},
{"ADDRESS": "807 University Pky", "CITY": "Johnson City", "COUNTY": "", "LAT": "36.30164346", "LON": "-82.36695399", "NAME": "East Tennessee State University", "PHONE": "4234391000", "STATE": "TN", "TYPE": "UV", "WFO": "MRX"},
{"ADDRESS": "Milligan Hwy", "CITY": "Milligan College", "COUNTY": "", "LAT": "36.300147", "LON": "-82.29407", "NAME": "Milligan College", "PHONE": "4234618700", "STATE": "TN", "TYPE": "UV", "WFO": "MRX"},
{"ADDRESS": "222 E Unaka Ave", "CITY": "Johnson City", "COUNTY": "", "LAT": "36.32438967", "LON": "-82.35456622", "NAME": "Jenny Lea Academy of Cosmetology and Aesthetics", "PHONE": "4239269095", "STATE": "TN", "TYPE": "UV", "WFO": "MRX"},
{"ADDRESS": "One Walker Dr", "CITY": "Johnson City", "COUNTY": "", "LAT": "36.32818001", "LON": "-82.3079505", "NAME": "Emmanuel School of Religion", "PHONE": "4239261186", "STATE": "TN", "TYPE": "UV", "WFO": "MRX"},
{"ADDRESS": "426 Highway 91", "CITY": "Elizabethton", "COUNTY": "", "LAT": "36.36608347", "LON": "-82.17801135", "NAME": "Tennessee Technology Center at Elizabethton", "PHONE": "4235430070", "STATE": "TN", "TYPE": "UV", "WFO": "MRX"},
{"ADDRESS": "6965 Cumberland Gap Pky", "CITY": "Harrogate", "COUNTY": "", "LAT": "36.58128408", "LON": "-83.65881754", "NAME": "Lincoln Memorial University", "PHONE": "4238693611", "STATE": "TN", "TYPE": "UV", "WFO": "MRX"},
{"ADDRESS": "2425 Hwy 75", "CITY": "Blountville", "COUNTY": "", "LAT": "36.48549685", "LON": "-82.4093093", "NAME": "Northeast State Technical Community College", "PHONE": "4233233191", "STATE": "TN", "TYPE": "UV", "WFO": "MRX"},
{"ADDRESS": "1350 King College Rd", "CITY": "Bristol", "COUNTY": "", "LAT": "36.58589852", "LON": "-82.156532", "NAME": "King College", "PHONE": "4239681187", "STATE": "TN", "TYPE": "UV", "WFO": "MRX"},
{"ADDRESS": "100 Piedmont Ave", "CITY": "Bristol", "COUNTY": "", "LAT": "36.59718711", "LON": "-82.18436298", "NAME": "Southeast Culinary & Hospitality College", "PHONE": "2765915699", "STATE": "VA", "TYPE": "UV", "WFO": "MRX"},
{"ADDRESS": "1013 Moore Street", "CITY": "Bristol", "COUNTY": "", "LAT": "36.60500579", "LON": "-82.17614", "NAME": "Virginia Intermont College", "PHONE": "2766696101", "STATE": "VA", "TYPE": "UV", "WFO": "MRX"},
{"ADDRESS": "100 VHCC Drive", "CITY": "Abingdon", "COUNTY": "", "LAT": "36.699275", "LON": "-82.001304", "NAME": "Virginia Highlands Community College", "PHONE": "2767392400", "STATE": "VA", "TYPE": "UV", "WFO": "MRX"},
{"ADDRESS": "848 Thompson Dr", "CITY": "Abingdon", "COUNTY": "", "LAT": "36.71966686", "LON": "-81.9499286", "NAME": "Washington County Adult Skill Center", "PHONE": "2766761948", "STATE": "VA", "TYPE": "UV", "WFO": "MRX"},
{"ADDRESS": "3441 Mountain Empire Road", "CITY": "Big Stone Gap", "COUNTY": "", "LAT": "36.85511589", "LON": "-82.75848215", "NAME": "Mountain Empire Community College", "PHONE": "2765232400", "STATE": "VA", "TYPE": "UV", "WFO": "MRX"},
{"ADDRESS": "1 Garnand Drive", "CITY": "Emory", "COUNTY": "", "LAT": "36.772543", "LON": "-81.831737", "NAME": "Emory and Henry College", "PHONE": "2769444121", "STATE": "VA", "TYPE": "UV", "WFO": "MRX"},
{"ADDRESS": "1 College Avenue", "CITY": "Wise", "COUNTY": "", "LAT": "36.97146836", "LON": "-82.55872831", "NAME": "The University of Virginia's College at Wise", "PHONE": "2763280100", "STATE": "VA", "TYPE": "UV", "WFO": "MRX"},
{"ADDRESS": "796 Orme RD", "CITY": "South Pittsburg", "COUNTY": "MARION ", "LAT": "35.011584", "LON": "-85.804893", "NAME": "Orme Volunteer Fire Department", "PHONE": "000-000-0000", "STATE": "TN", "TYPE": "FD", "WFO": "MRX"},
{"ADDRESS": "279 Short Hollow RD", "CITY": "South Pittsburg", "COUNTY": "MARION ", "LAT": "35.007057", "LON": "-85.66947", "NAME": "New Hope Volunteer Fire Department", "PHONE": "423-837-8666", "STATE": "TN", "TYPE": "FD", "WFO": "MRX"},
{"ADDRESS": "205 Elm AVE", "CITY": "South Pittsburg", "COUNTY": "MARION ", "LAT": "35.013429", "LON": "-85.7052225", "NAME": "South Pittsburg Fire/Rescue", "PHONE": "423-837-5000", "STATE": "TN", "TYPE": "FD", "WFO": "MRX"},
{"ADDRESS": "115 Kirk LN", "CITY": "South Pittsburg", "COUNTY": "MARION ", "LAT": "35.030115", "LON": "-85.7639025", "NAME": "South Pittsburg Mountain Volunteer Fire Department, Inc.", "PHONE": "423-837-7775", "STATE": "TN", "TYPE": "FD", "WFO": "MRX"},
{"ADDRESS": "710 Scenic HWY", "CITY": "Lookout Mountain", "COUNTY": "HAMILTON ", "LAT": "34.99393678", "LON": "-85.35290033", "NAME": "Lookout Mountain Fire Department", "PHONE": "423-821-1226", "STATE": "TN", "TYPE": "FD", "WFO": "MRX"},
{"ADDRESS": "675 Main ST", "CITY": "Kimball", "COUNTY": "MARION ", "LAT": "35.045325", "LON": "-85.677813", "NAME": "Kimball Volunteer Fire Department", "PHONE": "423-837-7040", "STATE": "TN", "TYPE": "FD", "WFO": "MRX"},
{"ADDRESS": "283 W HIlls DR", "CITY": "Chattanooga", "COUNTY": "HAMILTON ", "LAT": "35.022996", "LON": "-85.409424", "NAME": "Raccoon Mountain Volunteer Fire Department", "PHONE": "706-861-1234", "STATE": "TN", "TYPE": "FD", "WFO": "MRX"},
{"ADDRESS": "5960 Sweetens Cove RD", "CITY": "South Pittsburg", "COUNTY": "MARION ", "LAT": "35.070093", "LON": "-85.778073", "NAME": "Sweeton Cove Volunteer Fire Department", "PHONE": "423-837-7786", "STATE": "TN", "TYPE": "FD", "WFO": "MRX"},
{"ADDRESS": "13115 Mullins Cove RD", "CITY": "Whitwell", "COUNTY": "MARION ", "LAT": "35.054055", "LON": "-85.437882", "NAME": "Mullins Cove Volunteer Fire Department", "PHONE": "423-309-4734", "STATE": "TN", "TYPE": "FD", "WFO": "MRX"},
{"ADDRESS": "4460 Main ST", "CITY": "Jasper", "COUNTY": "MARION ", "LAT": "35.073675", "LON": "-85.624722", "NAME": "Jasper Fire Department", "PHONE": "423-942-3825", "STATE": "TN", "TYPE": "FD", "WFO": "MRX"},
{"ADDRESS": "", "CITY": "Jasper", "COUNTY": "MARION ", "LAT": "35.0802771", "LON": "-85.6264368", "NAME": "Foster Falls Volunteer Fire Department", "PHONE": "423-942-2600", "STATE": "TN", "TYPE": "FD", "WFO": "MRX"},
{"ADDRESS": "149 Goff Payne RD", "CITY": "South Pittsburg", "COUNTY": "MARION ", "LAT": "35.100423", "LON": "-85.735953", "NAME": "Battle Creek Volunteer Fire Department", "PHONE": "423-837-5964", "STATE": "TN", "TYPE": "FD", "WFO": "MRX"},
{"ADDRESS": "", "CITY": "Collegedale", "COUNTY": "HAMILTON ", "LAT": "35.046105", "LON": "-85.0510025", "NAME": "Tri-Community Volunteer Fire Department", "PHONE": "423-396-3113", "STATE": "TN", "TYPE": "FD", "WFO": "MRX"},
{"ADDRESS": "Community Center Dr. DR", "CITY": "Copperhill", "COUNTY": "POLK ", "LAT": "34.9900241", "LON": "-84.3734363", "NAME": "East Polk Fire and Rescue Squad", "PHONE": "423-496-4092", "STATE": "TN", "TYPE": "FD", "WFO": "MRX"},
{"ADDRESS": "910 Wisdom ST", "CITY": "Chattanooga", "COUNTY": "HAMILTON ", "LAT": "35.079858", "LON": "-85.26321", "NAME": "Chattanooga Fire Department", "PHONE": "423-643-5600", "STATE": "TN", "TYPE": "FD", "WFO": "MRX"},
{"ADDRESS": "", "CITY": "Copperhill", "COUNTY": "POLK ", "LAT": "35.015676", "LON": "-84.386582", "NAME": "Copperhill Volunteer Fire Department", "PHONE": "423-496-7312", "STATE": "TN", "TYPE": "FD", "WFO": "MRX"},
{"ADDRESS": "60 Helton RD", "CITY": "Murphy", "COUNTY": "CHEROKEE ", "LAT": "35.01261841", "LON": "-84.29539101", "NAME": "Wolf Creek Volunteer Fire Department Inc.", "PHONE": "828-494-2299", "STATE": "NC", "TYPE": "FD", "WFO": "MRX"},
{"ADDRESS": "40 Helton RD", "CITY": "Murphy", "COUNTY": "CHEROKEE ", "LAT": "35.012745", "LON": "-84.295674", "NAME": "Wolfcreek Fire Department, Inc.", "PHONE": "828-494-7713", "STATE": "NC", "TYPE": "FD", "WFO": "MRX"},
{"ADDRESS": "5402 HWY 58", "CITY": "Harrison", "COUNTY": "HAMILTON ", "LAT": "35.10385472", "LON": "-85.16275444", "NAME": "Highway 58 Volunteer Fire Department, Inc.", "PHONE": "423-344-5770", "STATE": "TN", "TYPE": "FD", "WFO": "MRX"},
{"ADDRESS": "", "CITY": "Sequatchie", "COUNTY": "MARION ", "LAT": "35.155239", "LON": "-85.6360025", "NAME": "Sequatchie Volunteer Fire Department", "PHONE": "423-942-6009", "STATE": "TN", "TYPE": "FD", "WFO": "MRX"},
{"ADDRESS": "2975 Blairesville HWY", "CITY": "Murphy", "COUNTY": "CHEROKEE ", "LAT": "34.998759", "LON": "-84.0755205", "NAME": "Bellview Volunteer Fire Department Inc.", "PHONE": "828-837-0214", "STATE": "NC", "TYPE": "FD", "WFO": "MRX"},
{"ADDRESS": "1111 Ridgeway AVE", "CITY": "Signal Mountain", "COUNTY": "HAMILTON ", "LAT": "35.13277246", "LON": "-85.3326163", "NAME": "Signal Mountain Fire Department", "PHONE": "423-886-3314", "STATE": "TN", "TYPE": "FD", "WFO": "MRX"},
{"ADDRESS": "", "CITY": "Warne", "COUNTY": "CLAY ", "LAT": "34.997028", "LON": "-83.8976525", "NAME": "Warne Volunteer Fire Department, Inc.", "PHONE": "828-389-4083", "STATE": "NC", "TYPE": "FD", "WFO": "MRX"},
{"ADDRESS": "100 Little Ranger RD", "CITY": "Murphy", "COUNTY": "CHEROKEE ", "LAT": "35.02441127", "LON": "-84.12526368", "NAME": "Ranger Volunteer Fire Department", "PHONE": "828-644-5677", "STATE": "NC", "TYPE": "FD", "WFO": "MRX"},
{"ADDRESS": "3117 Datyon BLVD", "CITY": "Red Bank", "COUNTY": "HAMILTON ", "LAT": "35.1449", "LON": "-85.27677", "NAME": "Red Bank Fire Department", "PHONE": "423-877-7252", "STATE": "TN", "TYPE": "FD", "WFO": "MRX"},
{"ADDRESS": "", "CITY": "Signal Mountain", "COUNTY": "HAMILTON ", "LAT": "35.165193", "LON": "-85.339691", "NAME": "Waldens Ridge Emergency Services, Inc.", "PHONE": "423-886-5974", "STATE": "TN", "TYPE": "FD", "WFO": "MRX"},
{"ADDRESS": "5817 HWY 27", "CITY": "Chatti", "COUNTY": "HAMILTON ", "LAT": "35.180262", "LON": "-85.4215515", "NAME": "Suck Creek Volunteer Fire Department", "PHONE": "423-658-2489", "STATE": "TN", "TYPE": "FD", "WFO": "MRX"},
{"ADDRESS": "138 Alvin York HWY", "CITY": "Whitwell", "COUNTY": "MARION ", "LAT": "35.190018", "LON": "-85.4854425", "NAME": "Crossroads Volunteer Fire Department", "PHONE": "423-658-9000", "STATE": "TN", "TYPE": "FD", "WFO": "MRX"},
{"ADDRESS": "", "CITY": "Brasstown", "COUNTY": "CLAY ", "LAT": "35.032416", "LON": "-83.9379005", "NAME": "Brasstown Fire Department", "PHONE": "828-837-2819", "STATE": "NC", "TYPE": "FD", "WFO": "MRX"},
{"ADDRESS": "", "CITY": "Whitwell", "COUNTY": "MARION ", "LAT": "35.201877", "LON": "-85.5091925", "NAME": "West Valley Fire Department", "PHONE": "423-658-0588", "STATE": "TN", "TYPE": "FD", "WFO": "MRX"},
{"ADDRESS": "", "CITY": "Whitwell", "COUNTY": "MARION ", "LAT": "35.201877", "LON": "-85.5091925", "NAME": "Whitwell Volunteer Fire Department", "PHONE": "423-800-7800", "STATE": "TN", "TYPE": "FD", "WFO": "MRX"},
{"ADDRESS": "", "CITY": "Murphy", "COUNTY": "CHEROKEE ", "LAT": "35.063511", "LON": "-84.141683", "NAME": "Hiwassee Dam Volunteer Fire Department, Inc.", "PHONE": "828-644-9032", "STATE": "NC", "TYPE": "FD", "WFO": "MRX"},
{"ADDRESS": "6078 Taft HWY", "CITY": "Signal Mountain", "COUNTY": "HAMILTON ", "LAT": "35.18867283", "LON": "-85.35245838", "NAME": "Lone Oak Volunteer Fire Department", "PHONE": "423-886-7250", "STATE": "TN", "TYPE": "FD", "WFO": "MRX"},
{"ADDRESS": "", "CITY": "Murphy", "COUNTY": "CHEROKEE ", "LAT": "35.065077", "LON": "-84.1312205", "NAME": "Murphy Volunteer Fire Department", "PHONE": "828-837-2212", "STATE": "NC", "TYPE": "FD", "WFO": "MRX"},
{"ADDRESS": "2299 Martins Creek RD", "CITY": "Murphy", "COUNTY": "CHEROKEE ", "LAT": "35.05349313", "LON": "-84.02404325", "NAME": "Martin's Creek Volunteer Fire Department", "PHONE": "828-837-2787", "STATE": "NC", "TYPE": "FD", "WFO": "MRX"},
{"ADDRESS": "", "CITY": "Murphy", "COUNTY": "CHEROKEE ", "LAT": "35.064726", "LON": "-84.1125905", "NAME": "Peachtree Fire Department", "PHONE": "828-837-0381", "STATE": "NC", "TYPE": "FD", "WFO": "MRX"},
{"ADDRESS": "7525 Middle Valley Rd", "CITY": "Hixson", "COUNTY": "HAMILTON ", "LAT": "35.183799", "LON": "-85.1955705", "NAME": "Dallas Bay Volunteer Fire Department & Rescue, I", "PHONE": "423-842-9370", "STATE": "TN", "TYPE": "FD", "WFO": "MRX"},
{"ADDRESS": "", "CITY": "Hayesville", "COUNTY": "CLAY ", "LAT": "35.041133", "LON": "-83.8175016", "NAME": "Clay County Fire & Rescue Squad, Inc.", "PHONE": "828-389-6905", "STATE": "NC", "TYPE": "FD", "WFO": "MRX"},
{"ADDRESS": "", "CITY": "Hayesville", "COUNTY": "CLAY ", "LAT": "35.037816", "LON": "-83.778353", "NAME": "Shooting Creek Volunteer Fire Department", "PHONE": "828-389-8072", "STATE": "NC", "TYPE": "FD", "WFO": "MRX"},
{"ADDRESS": "", "CITY": "Cleveland", "COUNTY": "BRADLEY", "LAT": "35.160576", "LON": "-84.876182", "NAME": "Bradley County Fire - Rescue", "PHONE": "423-728-7067", "STATE": "TN", "TYPE": "FD", "WFO": "MRX"},
{"ADDRESS": "", "CITY": "Cleveland", "COUNTY": "BRADLEY", "LAT": "35.160576", "LON": "-84.876182", "NAME": "Cleveland Fire Department", "PHONE": "423-476-6713", "STATE": "TN", "TYPE": "FD", "WFO": "MRX"},
{"ADDRESS": "Main Street", "CITY": "Benton", "COUNTY": "POLK ", "LAT": "35.17248625", "LON": "-84.65060609", "NAME": "West Polk County Fire & Rescue", "PHONE": "423-338-4539", "STATE": "TN", "TYPE": "FD", "WFO": "MRX"},
{"ADDRESS": "734 Martin RD", "CITY": "Murphy", "COUNTY": "CHEROKEE ", "LAT": "35.132562", "LON": "-84.095811", "NAME": "Grape Creek Volunteer Fire Department", "PHONE": "828-837-4436", "STATE": "NC", "TYPE": "FD", "WFO": "MRX"},
{"ADDRESS": "9835 Dayton PIKE", "CITY": "Soddy-Daisy", "COUNTY": "HAMILTON ", "LAT": "35.247438", "LON": "-85.188132", "NAME": "City of Soddy-Daisy Fire Department", "PHONE": "423-332-5325", "STATE": "TN", "TYPE": "FD", "WFO": "MRX"},
{"ADDRESS": "1989 Green Pond RD", "CITY": "Soddy-Daisy", "COUNTY": "HAMILTON ", "LAT": "35.242722", "LON": "-85.1215635", "NAME": "Sequoyah Volunteer Fire Department", "PHONE": "423-332-5321", "STATE": "TN", "TYPE": "FD", "WFO": "MRX"},
{"ADDRESS": "247 Lee Morrison RD", "CITY": "Whitwell", "COUNTY": "SEQUATCHIE ", "LAT": "35.290197", "LON": "-85.55634", "NAME": "Whitwell Mountain Fire & Rescue", "PHONE": "423-658-1477", "STATE": "TN", "TYPE": "FD", "WFO": "MRX"},
{"ADDRESS": "1705 Mowbray Pike", "CITY": "Soddy Daisy", "COUNTY": "HAMILTON ", "LAT": "35.27412748", "LON": "-85.21851283", "NAME": "Mowbray Volunteer Fire Department", "PHONE": "423-332-9658", "STATE": "TN", "TYPE": "FD", "WFO": "MRX"},
{"ADDRESS": "14949 Joe Brown HWY", "CITY": "Murphy", "COUNTY": "CHEROKEE ", "LAT": "35.193915", "LON": "-84.138543", "NAME": "Unaka Volunteer Fire Department", "PHONE": "828-835-8103", "STATE": "NC", "TYPE": "FD", "WFO": "MRX"},
{"ADDRESS": "", "CITY": "Andrews", "COUNTY": "CHEROKEE ", "LAT": "35.197071", "LON": "-83.816504", "NAME": "Valleytown Fire Rescue Department", "PHONE": "828-321-3707", "STATE": "NC", "TYPE": "FD", "WFO": "MRX"},
{"ADDRESS": "85 Locust ST", "CITY": "Andrews", "COUNTY": "CHEROKEE ", "LAT": "35.20489854", "LON": "-83.82758483", "NAME": "Andrews Fire Department", "PHONE": "828-321-4200", "STATE": "NC", "TYPE": "FD", "WFO": "MRX"},
{"ADDRESS": "RR 2 Box 190", "CITY": "Dunlap", "COUNTY": "SEQUATCHIE ", "LAT": "35.375973", "LON": "-85.3917515", "NAME": "Lewis Chapel Volunteer Fire Department", "PHONE": "423-949-6321", "STATE": "TN", "TYPE": "FD", "WFO": "MRX"},
{"ADDRESS": "", "CITY": "Dunlap", "COUNTY": "SEQUATCHIE ", "LAT": "35.3765622", "LON": "-85.3914382", "NAME": "Southend Volunteer Fire Department", "PHONE": "423-949-5678", "STATE": "TN", "TYPE": "FD", "WFO": "MRX"},
{"ADDRESS": "", "CITY": "Dunlap", "COUNTY": "SEQUATCHIE ", "LAT": "35.390985", "LON": "-85.3896725", "NAME": "Dunlap Volunteer Fire Department", "PHONE": "423-949-2115", "STATE": "TN", "TYPE": "FD", "WFO": "MRX"},
{"ADDRESS": "14705 Dayton TPKE", "CITY": "Sale Creek", "COUNTY": "HAMILTON ", "LAT": "35.373123", "LON": "-85.1149935", "NAME": "Sale Creek Volunteer Fire & Rescue", "PHONE": "423-332-2424", "STATE": "TN", "TYPE": "FD", "WFO": "MRX"},
{"ADDRESS": "1018 Tennessee AVE", "CITY": "Etowah", "COUNTY": "MCMINN ", "LAT": "35.320608", "LON": "-84.5273205", "NAME": "Etowah Rural Fire Department", "PHONE": "423-263-9312", "STATE": "TN", "TYPE": "FD", "WFO": "MRX"},
{"ADDRESS": "126 8TH ST", "CITY": "Etowah", "COUNTY": "MCMINN ", "LAT": "35.324064", "LON": "-84.526101", "NAME": "Etowah City Fire Department", "PHONE": "423-263-9044", "STATE": "TN", "TYPE": "FD", "WFO": "MRX"},
{"ADDRESS": "470 Reliance RD", "CITY": "Tellico Plains", "COUNTY": "MONROE ", "LAT": "35.331534", "LON": "-84.3773715", "NAME": "Conasauga Valley Fire Department", "PHONE": "423-253-2123", "STATE": "TN", "TYPE": "FD", "WFO": "MRX"},
{"ADDRESS": "", "CITY": "Riceville", "COUNTY": "MCMINN ", "LAT": "35.369106", "LON": "-84.771422", "NAME": "Riceville Fire Department", "PHONE": "423-462-2739", "STATE": "TN", "TYPE": "FD", "WFO": "MRX"},
{"ADDRESS": "8230 State Route 8", "CITY": "Dunlap", "COUNTY": "SEQUATCHIE ", "LAT": "35.473392", "LON": "-85.4575425", "NAME": "Cagle Volunteer Fire Department", "PHONE": "423-949-4091", "STATE": "TN", "TYPE": "FD", "WFO": "MRX"},
{"ADDRESS": "201 Southard ST", "CITY": "Tellico Plains", "COUNTY": "MONROE ", "LAT": "35.362008", "LON": "-84.293982", "NAME": "Tellico Plains Volunteer Fire Department", "PHONE": "423-253-2333", "STATE": "TN", "TYPE": "FD", "WFO": "MRX"},
{"ADDRESS": "611 Turkey Creek RD", "CITY": "Tellico Plains", "COUNTY": "MONROE ", "LAT": "35.35745645", "LON": "-84.18043553", "NAME": "Turkey Creek Volunteer Fire Department", "PHONE": "423-253-2223", "STATE": "TN", "TYPE": "FD", "WFO": "MRX"},
{"ADDRESS": "", "CITY": "Graysville", "COUNTY": "RHEA ", "LAT": "35.455585", "LON": "-85.09063", "NAME": "Graysville Volunteer Fire Department", "PHONE": "423-775-9242", "STATE": "TN", "TYPE": "FD", "WFO": "MRX"},
{"ADDRESS": "11667 Hendon RD", "CITY": "Graysville", "COUNTY": "BLEDSOE", "LAT": "35.477037", "LON": "-85.1869935", "NAME": "Brayton Volunteer Fire Department", "PHONE": "423-554-3137", "STATE": "TN", "TYPE": "FD", "WFO": "MRX"},
{"ADDRESS": "700 Old State RD", "CITY": "Tellico Plains", "COUNTY": "MONROE ", "LAT": "35.399988", "LON": "-84.356064", "NAME": "Mt Vernon Volunteer Fire Department", "PHONE": "423-253-3032", "STATE": "TN", "TYPE": "FD", "WFO": "MRX"},
{"ADDRESS": "1956 Rafter RD", "CITY": "Tellico Plains", "COUNTY": "MONROE ", "LAT": "35.39213791", "LON": "-84.17809867", "NAME": "Rafter Volunteer Fire Department", "PHONE": "423-253-2223", "STATE": "TN", "TYPE": "FD", "WFO": "MRX"},
{"ADDRESS": "26 Church ST", "CITY": "Englewood", "COUNTY": "MCMINN ", "LAT": "35.4267569", "LON": "-84.48684417", "NAME": "Englewood Fire Department", "PHONE": "423-887-7509", "STATE": "TN", "TYPE": "FD", "WFO": "MRX"},
{"ADDRESS": "", "CITY": "Athens", "COUNTY": "MCMINN ", "LAT": "35.440548", "LON": "-84.592592", "NAME": "Athens Fire Department", "PHONE": "423-744-2760", "STATE": "TN", "TYPE": "FD", "WFO": "MRX"},
{"ADDRESS": "", "CITY": "Athens", "COUNTY": "MCMINN ", "LAT": "35.440548", "LON": "-84.592592", "NAME": "Claxton Community Volunteer Emergency Services", "PHONE": "423-336-5166", "STATE": "TN", "TYPE": "FD", "WFO": "MRX"},
{"ADDRESS": "114 Campus DR", "CITY": "Dayton", "COUNTY": "RHEA ", "LAT": "35.494443", "LON": "-85.11543", "NAME": "Laurelbrook Fire Department", "PHONE": "423-775-3336", "STATE": "TN", "TYPE": "FD", "WFO": "MRX"},
{"ADDRESS": "1169 Market ST", "CITY": "Dayton", "COUNTY": "RHEA ", "LAT": "35.491266", "LON": "-85.0157325", "NAME": "Dayton Fire Department", "PHONE": "423-775-8402", "STATE": "TN", "TYPE": "FD", "WFO": "MRX"},
{"ADDRESS": "", "CITY": "Decatur", "COUNTY": "MEIGS", "LAT": "35.502855", "LON": "-84.8096405", "NAME": "Decatur Fire Department", "PHONE": "423-334-5716", "STATE": "TN", "TYPE": "FD", "WFO": "MRX"},
{"ADDRESS": "", "CITY": "Decatur", "COUNTY": "MEIGS", "LAT": "35.502855", "LON": "-84.8096405", "NAME": "Meigs County Emergency Services Fire/Rescue", "PHONE": "423-334-3211", "STATE": "TN", "TYPE": "FD", "WFO": "MRX"},
{"ADDRESS": "155 Gibson RD", "CITY": "Madisonville", "COUNTY": "MONROE ", "LAT": "35.47006788", "LON": "-84.37953297", "NAME": "Notchey Creek Volunteer Fire Department", "PHONE": "423-519-4224", "STATE": "TN", "TYPE": "FD", "WFO": "MRX"},
{"ADDRESS": "507 Chestua RD", "CITY": "Madisonville", "COUNTY": "MONROE ", "LAT": "35.479368", "LON": "-84.4158735", "NAME": "Gudger Volunteer Fire Department", "PHONE": "423-519-8999", "STATE": "TN", "TYPE": "FD", "WFO": "MRX"},
{"ADDRESS": "3246 Ball Play RD", "CITY": "Madisonville", "COUNTY": "MONROE ", "LAT": "35.471997", "LON": "-84.2490315", "NAME": "Ball Play Fire Department", "PHONE": "423-295-2464", "STATE": "TN", "TYPE": "FD", "WFO": "MRX"},
{"ADDRESS": "", "CITY": "Niota", "COUNTY": "MCMINN ", "LAT": "35.5146963", "LON": "-84.5474279", "NAME": "Union Grove Volunteer Fire Department", "PHONE": "423-337-8231", "STATE": "TN", "TYPE": "FD", "WFO": "MRX"},
{"ADDRESS": "2894 Bench RD", "CITY": "Pikeville", "COUNTY": "BLEDSOE", "LAT": "35.599995", "LON": "-85.268601", "NAME": "Griffith Volunteer Fire Department", "PHONE": "423-881-3749", "STATE": "TN", "TYPE": "FD", "WFO": "MRX"},
{"ADDRESS": "315 Englewood RD", "CITY": "Madisonville", "COUNTY": "MONROE ", "LAT": "35.51526273", "LON": "-84.3651402", "NAME": "Madisonville Fire Department", "PHONE": "423-442-2212", "STATE": "TN", "TYPE": "FD", "WFO": "MRX"},
{"ADDRESS": "", "CITY": "Niota", "COUNTY": "MCMINN ", "LAT": "35.548188", "LON": "-84.580793", "NAME": "Niota Volunteer Fire Department", "PHONE": "423-568-2011", "STATE": "TN", "TYPE": "FD", "WFO": "MRX"},
{"ADDRESS": "8860 Back Valley RD", "CITY": "Evensville", "COUNTY": "RHEA ", "LAT": "35.589753", "LON": "-84.9469815", "NAME": "Rhea County Volunteer Fire Department", "PHONE": "423-775-2505", "STATE": "TN", "TYPE": "FD", "WFO": "MRX"},
{"ADDRESS": "275 Fire Department RD", "CITY": "Sweetwater", "COUNTY": "MONROE ", "LAT": "35.54222794", "LON": "-84.44069932", "NAME": "Christianburg Volunteer Fire Department", "PHONE": "423-337-2506", "STATE": "TN", "TYPE": "FD", "WFO": "MRX"},
{"ADDRESS": "", "CITY": "Pikeville", "COUNTY": "BLEDSOE", "LAT": "35.624418", "LON": "-85.198814", "NAME": "Bledsoe County Volunteer Fire Department District #5", "PHONE": "423-447-6561", "STATE": "TN", "TYPE": "FD", "WFO": "MRX"},
{"ADDRESS": "R # 3", "CITY": "Pikeville", "COUNTY": "BLEDSOE", "LAT": "35.624418", "LON": "-85.198814", "NAME": "Falls Creek Volunteer Fire Department", "PHONE": "000-000-0000", "STATE": "TN", "TYPE": "FD", "WFO": "MRX"},
{"ADDRESS": "", "CITY": "Pikeville", "COUNTY": "BLEDSOE", "LAT": "35.624418", "LON": "-85.198814", "NAME": "Pikeville Volunteer Fire Department", "PHONE": "423-447-6222", "STATE": "TN", "TYPE": "FD", "WFO": "MRX"},
{"ADDRESS": "249 Brakebill School RD", "CITY": "Madisonville", "COUNTY": "MONROE ", "LAT": "35.542998", "LON": "-84.279051", "NAME": "Hopewell Volunteer Fire Department", "PHONE": "423-519-1030", "STATE": "TN", "TYPE": "FD", "WFO": "MRX"},
{"ADDRESS": "", "CITY": "Vonore", "COUNTY": "MONROE ", "LAT": "35.569887", "LON": "-84.222791", "NAME": "Vonore Fire Department", "PHONE": "423-884-6111", "STATE": "TN", "TYPE": "FD", "WFO": "MRX"},
{"ADDRESS": "1309 Panter Bottom RD", "CITY": "Pikeville", "COUNTY": "BLEDSOE", "LAT": "35.675208", "LON": "-85.2120405", "NAME": "Bledsoe County Fire Department Mt Crest District #3", "PHONE": "423-881-3500", "STATE": "TN", "TYPE": "FD", "WFO": "MRX"},
{"ADDRESS": "208 Monroe ST", "CITY": "Sweetwater", "COUNTY": "MONROE ", "LAT": "35.599815", "LON": "-84.464163", "NAME": "City of Sweetwater Fire Department", "PHONE": "423-337-6724", "STATE": "TN", "TYPE": "FD", "WFO": "MRX"},
{"ADDRESS": "1530 Oak Grove RD", "CITY": "Madisonville", "COUNTY": "MONROE ", "LAT": "35.606862", "LON": "-84.30201", "NAME": "Tri-Community Fire Department", "PHONE": "423-442-3742", "STATE": "TN", "TYPE": "FD", "WFO": "MRX"},
{"ADDRESS": "184 Old Sweetwater RD", "CITY": "Sweetwater", "COUNTY": "MONROE ", "LAT": "35.63981446", "LON": "-84.45765687", "NAME": "North Monroe Volunteer Fire Department", "PHONE": "423-337-6038", "STATE": "TN", "TYPE": "FD", "WFO": "MRX"},
{"ADDRESS": "13002 Summer City RD", "CITY": "Spring City", "COUNTY": "BLEDSOE", "LAT": "35.695215", "LON": "-85.00158", "NAME": "Luminary-Frostbite Volunteer Fire Department, Inc.", "PHONE": "423-533-4215", "STATE": "TN", "TYPE": "FD", "WFO": "MRX"},
{"ADDRESS": "21008 Old State Highway 28", "CITY": "Pikeville", "COUNTY": "BLEDSOE", "LAT": "35.713926", "LON": "-85.084002", "NAME": "Nine Mile Volunteer Fire Department", "PHONE": "423-533-2462", "STATE": "TN", "TYPE": "FD", "WFO": "MRX"},
{"ADDRESS": "", "CITY": "Spring City", "COUNTY": "RHEA ", "LAT": "35.690649", "LON": "-84.8460815", "NAME": "Spring City Volunteer Fire Department", "PHONE": "423-365-7070", "STATE": "TN", "TYPE": "FD", "WFO": "MRX"},
{"ADDRESS": "808 Church ST", "CITY": "Philadelphia", "COUNTY": "LOUDON ", "LAT": "35.67775803", "LON": "-84.40374103", "NAME": "Philadelphia Volunteer Fire-Rescue", "PHONE": "865-458-2052", "STATE": "TN", "TYPE": "FD", "WFO": "MRX"},
{"ADDRESS": "6899 Morganton RD", "CITY": "Greenback", "COUNTY": "LOUDON ", "LAT": "35.658576", "LON": "-84.1776615", "NAME": "Greenback Volunteer Fire Department", "PHONE": "865-856-6670", "STATE": "TN", "TYPE": "FD", "WFO": "MRX"},
{"ADDRESS": "210 Chota RD", "CITY": "Loudon", "COUNTY": "LOUDON ", "LAT": "35.695512", "LON": "-84.2624325", "NAME": "Tellico Village Volunteer Fire Department", "PHONE": "865-458-5733", "STATE": "TN", "TYPE": "FD", "WFO": "MRX"},
{"ADDRESS": "", "CITY": "Loudon", "COUNTY": "LOUDON ", "LAT": "35.725695", "LON": "-84.3357725", "NAME": "City of Loudon Fire Department", "PHONE": "865-408-0408", "STATE": "TN", "TYPE": "FD", "WFO": "MRX"},
{"ADDRESS": "", "CITY": "Townsend", "COUNTY": "BLOUNT ", "LAT": "35.677599", "LON": "-83.765942", "NAME": "Townsend Area Volunteer Fire Department", "PHONE": "865-448-6322", "STATE": "TN", "TYPE": "FD", "WFO": "MRX"},
{"ADDRESS": "", "CITY": "Friendsville", "COUNTY": "BLOUNT ", "LAT": "35.758734", "LON": "-84.124394", "NAME": "Friendsville Volunteer Fire Department, Inc.", "PHONE": "865-995-0986", "STATE": "TN", "TYPE": "FD", "WFO": "MRX"},
{"ADDRESS": "402 W Broadway AVE", "CITY": "Maryville", "COUNTY": "BLOUNT ", "LAT": "35.75215698", "LON": "-83.97492156", "NAME": "Maryville Fire Department", "PHONE": "865-273-3655", "STATE": "TN", "TYPE": "FD", "WFO": "MRX"},
{"ADDRESS": "224 Rose CIR", "CITY": "Kingston", "COUNTY": "ROANE", "LAT": "35.816454", "LON": "-84.545811", "NAME": "South Roane County Volunteer Fire Department", "PHONE": "865-376-3635", "STATE": "TN", "TYPE": "FD", "WFO": "MRX"},
{"ADDRESS": "3339 Mattox Cemetery RD", "CITY": "Sevierville", "COUNTY": "SEVIER ", "LAT": "35.718579", "LON": "-83.639232", "NAME": "Wears Valley Volunteer Fire Department", "PHONE": "865-428-4232", "STATE": "TN", "TYPE": "FD", "WFO": "MRX"},
{"ADDRESS": "853 New Midway RD", "CITY": "Kingston", "COUNTY": "ROANE", "LAT": "35.81346117", "LON": "-84.4423907", "NAME": "East Roane County Volunteer Fire Department", "PHONE": "865-376-4170", "STATE": "TN", "TYPE": "FD", "WFO": "MRX"},
{"ADDRESS": "1230 E Parkway", "CITY": "Gatlinburg", "COUNTY": "SEVIER ", "LAT": "35.725572", "LON": "-83.4802335", "NAME": "Gatlinburg Fire Department", "PHONE": "865-436-5112", "STATE": "TN", "TYPE": "FD", "WFO": "MRX"},
{"ADDRESS": "", "CITY": "Lenoir City", "COUNTY": "LOUDON ", "LAT": "35.815506", "LON": "-84.2922215", "NAME": "Lenoir City Fire Department", "PHONE": "865-986-2310", "STATE": "TN", "TYPE": "FD", "WFO": "MRX"},
{"ADDRESS": "", "CITY": "Lenoir City", "COUNTY": "LOUDON ", "LAT": "35.815506", "LON": "-84.2922215", "NAME": "Loudon County Fire & Rescue", "PHONE": "865-986-2882", "STATE": "TN", "TYPE": "FD", "WFO": "MRX"},
{"ADDRESS": "", "CITY": "Rockwood", "COUNTY": "ROANE", "LAT": "35.861514", "LON": "-84.695903", "NAME": "West Roane County Volunteer Fire Department", "PHONE": "865-354-8201", "STATE": "TN", "TYPE": "FD", "WFO": "MRX"},
{"ADDRESS": "", "CITY": "Gatlinburg", "COUNTY": "SEVIER ", "LAT": "35.730699", "LON": "-83.4732845", "NAME": "Pittman Center Community Volunteer Fire Department", "PHONE": "865-436-9684", "STATE": "TN", "TYPE": "FD", "WFO": "MRX"},
{"ADDRESS": "111 N Front ST", "CITY": "Rockwood", "COUNTY": "ROANE", "LAT": "35.868429", "LON": "-84.686373", "NAME": "Rockwood Fire Department", "PHONE": "865-354-3121", "STATE": "TN", "TYPE": "FD", "WFO": "MRX"},
{"ADDRESS": "2549 E Broadway AVE", "CITY": "Maryville", "COUNTY": "BLOUNT ", "LAT": "35.790606", "LON": "-83.94696", "NAME": "Blount County Fire Protection District", "PHONE": "865-983-2133", "STATE": "TN", "TYPE": "FD", "WFO": "MRX"},
{"ADDRESS": "124 Briscoe DR", "CITY": "McGhee Tyson ANG Base", "COUNTY": "BLOUNT ", "LAT": "35.81001979", "LON": "-84.00535166", "NAME": "134th CES/CEF Tennessee Air National Guard", "PHONE": "865-336-3316", "STATE": "TN", "TYPE": "FD", "WFO": "MRX"},
{"ADDRESS": "2010 N Wright RD", "CITY": "Alcoa", "COUNTY": "BLOUNT ", "LAT": "35.808372", "LON": "-83.9761605", "NAME": "City of Alcoa Fire Department", "PHONE": "865-380-4999", "STATE": "TN", "TYPE": "FD", "WFO": "MRX"},
{"ADDRESS": "220 N 3RD ST", "CITY": "Kingston", "COUNTY": "ROANE", "LAT": "35.87204579", "LON": "-84.51476251", "NAME": "Roane County Office of Emergency Services", "PHONE": "865-717-4115", "STATE": "TN", "TYPE": "FD", "WFO": "MRX"},
{"ADDRESS": "125 W Cumberland ST", "CITY": "Kingston", "COUNTY": "ROANE", "LAT": "35.87249623", "LON": "-84.51635481", "NAME": "City of Kingston Fire Department", "PHONE": "865-376-2936", "STATE": "TN", "TYPE": "FD", "WFO": "MRX"},
{"ADDRESS": "2828 Goose Gap RD", "CITY": "Sevierville", "COUNTY": "SEVIER ", "LAT": "35.789877", "LON": "-83.6274105", "NAME": "Waldens Creek Volunteer Fire Department", "PHONE": "865-429-8258", "STATE": "TN", "TYPE": "FD", "WFO": "MRX"},
{"ADDRESS": "", "CITY": "Pigeon Forge", "COUNTY": "SEVIER ", "LAT": "35.788128", "LON": "-83.561651", "NAME": "Pigeon Forge Fire Department", "PHONE": "865-429-7381", "STATE": "TN", "TYPE": "FD", "WFO": "MRX"},
{"ADDRESS": "", "CITY": "Harriman", "COUNTY": "ROANE", "LAT": "35.932344", "LON": "-84.53402", "NAME": "Harriman City Fire Department", "PHONE": "865-882-3072", "STATE": "TN", "TYPE": "FD", "WFO": "MRX"},
{"ADDRESS": "3109 Pittman Center RD", "CITY": "Sevierville", "COUNTY": "SEVIER ", "LAT": "35.815239", "LON": "-83.4476535", "NAME": "Catons Chapel Richardson Cove Volunteer Fire Department", "PHONE": "865-428-1177", "STATE": "TN", "TYPE": "FD", "WFO": "MRX"},
{"ADDRESS": "", "CITY": "Harriman", "COUNTY": "ROANE", "LAT": "35.92779", "LON": "-84.4860635", "NAME": "Midtown / First District Volunteer Fire Department", "PHONE": "865-882-1118", "STATE": "TN", "TYPE": "FD", "WFO": "MRX"},
{"ADDRESS": "", "CITY": "Seymour", "COUNTY": "SEVIER ", "LAT": "35.865114", "LON": "-83.747024", "NAME": "Seymour Volunteer Fire Department", "PHONE": "865-573-7475", "STATE": "TN", "TYPE": "FD", "WFO": "MRX"},
{"ADDRESS": "9746 Parkside DR", "CITY": "Knoxville", "COUNTY": "KNOX ", "LAT": "35.91095825", "LON": "-84.11159779", "NAME": "Rural - Metro Fire Department", "PHONE": "865-531-3006", "STATE": "TN", "TYPE": "FD", "WFO": "MRX"},
{"ADDRESS": "214 Queen ST", "CITY": "Oakdale", "COUNTY": "MORGAN ", "LAT": "35.98449165", "LON": "-84.56010212", "NAME": "Oakdale Area Volunteer Fire Department", "PHONE": "423-369-3345", "STATE": "TN", "TYPE": "FD", "WFO": "MRX"},
{"ADDRESS": "3292A Cosby HWY", "CITY": "Cosby", "COUNTY": "COCKE", "LAT": "35.84277894", "LON": "-83.22282638", "NAME": "Cosby Volunteer Fire Department", "PHONE": "423-487-2593", "STATE": "TN", "TYPE": "FD", "WFO": "MRX"},
{"ADDRESS": "1564 Wilhite Creek RD", "CITY": "Sevierville", "COUNTY": "SEVIER ", "LAT": "35.864802", "LON": "-83.328741", "NAME": "English Mountain Volunteer Fire Department", "PHONE": "865-429-3729", "STATE": "TN", "TYPE": "FD", "WFO": "MRX"},
{"ADDRESS": "2659 Old Newport HWY", "CITY": "Sevierville", "COUNTY": "SEVIER ", "LAT": "35.879832", "LON": "-83.443851", "NAME": "Sevier County Volunteer Fire Department", "PHONE": "865-428-5111", "STATE": "TN", "TYPE": "FD", "WFO": "MRX"},
{"ADDRESS": "4110 Big Creek RD", "CITY": "Hartford", "COUNTY": "COCKE", "LAT": "35.84302772", "LON": "-83.09700772", "NAME": "Grassy Fork Volunteer Fire Department, Inc.", "PHONE": "423-487-5222", "STATE": "TN", "TYPE": "FD", "WFO": "MRX"},
{"ADDRESS": "1911 Old Harriman HWY", "CITY": "Oliver Springs", "COUNTY": "ROANE", "LAT": "35.995644", "LON": "-84.3754815", "NAME": "Blair Volunteer Fire Department", "PHONE": "865-435-2032", "STATE": "TN", "TYPE": "FD", "WFO": "MRX"},
{"ADDRESS": "6616 Beaver RidgeRD", "CITY": "Knoxville", "COUNTY": "KNOX ", "LAT": "35.981172", "LON": "-84.094362", "NAME": "Karns Volunteer Fire Department", "PHONE": "865-691-1333", "STATE": "TN", "TYPE": "FD", "WFO": "MRX"},
{"ADDRESS": "900 E Hill AVE STE 430", "CITY": "Knoxville", "COUNTY": "KNOX ", "LAT": "35.968905", "LON": "-83.9056905", "NAME": "City of Knoxville Fire Department", "PHONE": "865-595-4480", "STATE": "TN", "TYPE": "FD", "WFO": "MRX"},
{"ADDRESS": "", "CITY": "Coalfield", "COUNTY": "MORGAN ", "LAT": "36.02868", "LON": "-84.42413", "NAME": "Coalfield Volunteer Fire Department", "PHONE": "865-435-0130", "STATE": "TN", "TYPE": "FD", "WFO": "MRX"},
{"ADDRESS": "Bldg 2500 MS 6307", "CITY": "Oak Ridge", "COUNTY": "ROANE", "LAT": "36.02463", "LON": "-84.23893", "NAME": "Oak Ridge National Laboratory Fire Department", "PHONE": "865-574-5678", "STATE": "TN", "TYPE": "FD", "WFO": "MRX"},
{"ADDRESS": "", "CITY": "Oak Ridge", "COUNTY": "ANDERSON ", "LAT": "36.025134", "LON": "-84.2387345", "NAME": "City of Oak Ridge Fire Department", "PHONE": "865-425-3520", "STATE": "TN", "TYPE": "FD", "WFO": "MRX"},
{"ADDRESS": "2418 McGaha Hollow RD", "CITY": "Dandridge", "COUNTY": "JEFFERSON", "LAT": "35.9282565", "LON": "-83.33721817", "NAME": "Chestnut Hill Volunteer Fire Department", "PHONE": "865-509-4488", "STATE": "TN", "TYPE": "FD", "WFO": "MRX"},
{"ADDRESS": "", "CITY": "Oliver Springs", "COUNTY": "ROANE", "LAT": "36.04808", "LON": "-84.347605", "NAME": "Oliver Springs Fire Department", "PHONE": "865-435-2511", "STATE": "TN", "TYPE": "FD", "WFO": "MRX"},
{"ADDRESS": "", "CITY": "Kodak", "COUNTY": "SEVIER ", "LAT": "35.970369", "LON": "-83.6076005", "NAME": "Northview Volunteer Fire Department", "PHONE": "865-933-9679", "STATE": "TN", "TYPE": "FD", "WFO": "MRX"},
{"ADDRESS": "482 S 107 HWY", "CITY": "Del Rio", "COUNTY": "COCKE", "LAT": "35.90305373", "LON": "-83.01716363", "NAME": "Del Rio Volunteer Fire Department", "PHONE": "423-487-2215", "STATE": "TN", "TYPE": "FD", "WFO": "MRX"},
{"ADDRESS": "107 Cassell RD", "CITY": "Oliver Springs", "COUNTY": "MORGAN ", "LAT": "36.069723", "LON": "-84.48264", "NAME": "Joyner Volunteer Fire Department", "PHONE": "423-324-5802", "STATE": "TN", "TYPE": "FD", "WFO": "MRX"},
{"ADDRESS": "", "CITY": "Wartburg", "COUNTY": "MORGAN ", "LAT": "36.087423", "LON": "-84.566852", "NAME": "Wartburg Volunteer Fire Department", "PHONE": "423-346-7667", "STATE": "TN", "TYPE": "FD", "WFO": "MRX"},
{"ADDRESS": "1019 Oliver Springs Hwy", "CITY": "Clinton", "COUNTY": "ANDERSON ", "LAT": "36.05445125", "LON": "-84.23969216", "NAME": "Anderson County Volunteer Fire Department- Marlow Unit", "PHONE": "865-435-1050", "STATE": "TN", "TYPE": "FD", "WFO": "MRX"},
{"ADDRESS": "2194 Clinton Highway", "CITY": "Powell", "COUNTY": "KNOX ", "LAT": "36.043533", "LON": "-84.113154", "NAME": "Claxton Volunteer Fire Department", "PHONE": "865-945-1314", "STATE": "TN", "TYPE": "FD", "WFO": "MRX"},
{"ADDRESS": "", "CITY": "Petros", "COUNTY": "MORGAN ", "LAT": "36.09613", "LON": "-84.43925", "NAME": "Petros Volunteer Fire Department", "PHONE": "423-324-2463", "STATE": "TN", "TYPE": "FD", "WFO": "MRX"},
{"ADDRESS": "103 C AVE", "CITY": "Newport", "COUNTY": "COCKE", "LAT": "35.96751", "LON": "-83.1937815", "NAME": "Newport Fire Department", "PHONE": "423-613-4047", "STATE": "TN", "TYPE": "FD", "WFO": "MRX"},
{"ADDRESS": "4744 Nashville Hwy.", "CITY": "Deer Lodge", "COUNTY": "MORGAN ", "LAT": "36.145089", "LON": "-84.8335635", "NAME": "Chestnut Ridge Volunteer Fire Department", "PHONE": "423-965-3922", "STATE": "TN", "TYPE": "FD", "WFO": "MRX"},
{"ADDRESS": "120 Fairground CIR", "CITY": "Newport", "COUNTY": "COCKE", "LAT": "35.97342291", "LON": "-83.21650654", "NAME": "Cocke County Fire Department", "PHONE": "423-623-4444", "STATE": "TN", "TYPE": "FD", "WFO": "MRX"},
{"ADDRESS": "", "CITY": "Dandridge", "COUNTY": "JEFFERSON", "LAT": "36.001653", "LON": "-83.4068015", "NAME": "Dandridge Volunteer Fire Department", "PHONE": "865-397-3192", "STATE": "TN", "TYPE": "FD", "WFO": "MRX"},
{"ADDRESS": "9444 Heiskell RD", "CITY": "Heiskell", "COUNTY": "KNOX ", "LAT": "36.081585", "LON": "-84.053592", "NAME": "Heiskell Volunteer Fire Department", "PHONE": "865-938-3473", "STATE": "TN", "TYPE": "FD", "WFO": "MRX"},
{"ADDRESS": "125 W Broad ST", "CITY": "Clinton", "COUNTY": "ANDERSON ", "LAT": "36.10010904", "LON": "-84.13427817", "NAME": "Clinton Fire Department", "PHONE": "865-457-2131", "STATE": "TN", "TYPE": "FD", "WFO": "MRX"},
{"ADDRESS": "2059 HWY 321", "CITY": "Parrottsville", "COUNTY": "COCKE", "LAT": "36.00369056", "LON": "-83.09252538", "NAME": "Parrottsville Volunteer Fire Department", "PHONE": "423-623-7174", "STATE": "TN", "TYPE": "FD", "WFO": "MRX"},
{"ADDRESS": "", "CITY": "Deer Lodge", "COUNTY": "MORGAN ", "LAT": "36.195819", "LON": "-84.832244", "NAME": "Deer Lodge Volunteer Fire Department", "PHONE": "423-965-3080", "STATE": "TN", "TYPE": "FD", "WFO": "MRX"},
{"ADDRESS": "924 Gunters Corner RD", "CITY": "Parrottsville", "COUNTY": "COCKE", "LAT": "36.001557", "LON": "-82.9696635", "NAME": "Long Creek Volunteer Fire Department, Inc.", "PHONE": "423-625-8655", "STATE": "TN", "TYPE": "FD", "WFO": "MRX"},
{"ADDRESS": "", "CITY": "New Market", "COUNTY": "JEFFERSON", "LAT": "36.081555", "LON": "-83.5649225", "NAME": "New Market Volunteer Fire Department and Rescue Team", "PHONE": "865-475-4064", "STATE": "TN", "TYPE": "FD", "WFO": "MRX"},
{"ADDRESS": "521 Harrison Ferry RD", "CITY": "Baneberry", "COUNTY": "JEFFERSON", "LAT": "36.04854388", "LON": "-83.27138937", "NAME": "Baneberry Volunteer Fire Department", "PHONE": "865-674-2022", "STATE": "TN", "TYPE": "FD", "WFO": "MRX"},
{"ADDRESS": "3342 Cedar Creek RD", "CITY": "Greeneville", "COUNTY": "GREENE ", "LAT": "36.02407998", "LON": "-82.90266825", "NAME": "Cedar Creek Volunteer Fire Department", "PHONE": "423-639-7537", "STATE": "TN", "TYPE": "FD", "WFO": "MRX"},
{"ADDRESS": "3035 Saint James RD", "CITY": "Greeneville", "COUNTY": "GREENE ", "LAT": "36.031392", "LON": "-82.955421", "NAME": "Saint James Volunteer Fire Department", "PHONE": "423-639-7121", "STATE": "TN", "TYPE": "FD", "WFO": "MRX"},
{"ADDRESS": "11970 Newport HWY", "CITY": "Greeneville", "COUNTY": "GREENE ", "LAT": "36.050202", "LON": "-82.9889325", "NAME": "Caney Branch Volunteer Fire Department", "PHONE": "423-638-1237", "STATE": "TN", "TYPE": "FD", "WFO": "MRX"},
{"ADDRESS": "", "CITY": "White Pine", "COUNTY": "JEFFERSON", "LAT": "36.089043", "LON": "-83.2871825", "NAME": "White Pine Volunteer Fire Department", "PHONE": "865-674-6568", "STATE": "TN", "TYPE": "FD", "WFO": "MRX"},
{"ADDRESS": "", "CITY": "Jefferson City", "COUNTY": "JEFFERSON", "LAT": "36.112074", "LON": "-83.478401", "NAME": "Lakeway Central Volunteer Fire Department", "PHONE": "865-475-0930", "STATE": "TN", "TYPE": "FD", "WFO": "MRX"},
{"ADDRESS": "112 W Broadway BLVD", "CITY": "Jefferson City", "COUNTY": "JEFFERSON", "LAT": "36.114948", "LON": "-83.4953805", "NAME": "Jefferson City Fire Department", "PHONE": "865-475-3616", "STATE": "TN", "TYPE": "FD", "WFO": "MRX"},
{"ADDRESS": "3250 Lake City HWY", "CITY": "Lake City", "COUNTY": "ANDERSON ", "LAT": "36.189729", "LON": "-84.1439925", "NAME": "Medford Volunteer Fire Department", "PHONE": "865-426-2621", "STATE": "TN", "TYPE": "FD", "WFO": "MRX"},
{"ADDRESS": "1352 Talbott Kansas RD", "CITY": "Talbott", "COUNTY": "JEFFERSON", "LAT": "36.11073216", "LON": "-83.38587027", "NAME": "Kansas-Talbott Volunteer Fire Department", "PHONE": "865-475-9189", "STATE": "TN", "TYPE": "FD", "WFO": "MRX"},
{"ADDRESS": "210 Turner Ridge RD", "CITY": "Newport", "COUNTY": "COCKE", "LAT": "36.089379", "LON": "-83.1719025", "NAME": "Centerview Volunteer Fire Department", "PHONE": "423-623-9444", "STATE": "TN", "TYPE": "FD", "WFO": "MRX"},
{"ADDRESS": "9 West CIR", "CITY": "Norris", "COUNTY": "ANDERSON ", "LAT": "36.197433", "LON": "-84.070782", "NAME": "Norris Department of Public Safety", "PHONE": "865-494-0880", "STATE": "TN", "TYPE": "FD", "WFO": "MRX"},
{"ADDRESS": "", "CITY": "Blane", "COUNTY": "GRAINGER ", "LAT": "36.154815", "LON": "-83.676644", "NAME": "Blane Volunteer Fire Department", "PHONE": "000-000-0000", "STATE": "TN", "TYPE": "FD", "WFO": "MRX"},
{"ADDRESS": "129 Clinchmore RD", "CITY": "Caryville", "COUNTY": "CAMPBELL ", "LAT": "36.23049681", "LON": "-84.28964551", "NAME": "Stoney Fork Volunteer Fire Department", "PHONE": "423-324-2539", "STATE": "TN", "TYPE": "FD", "WFO": "MRX"},
{"ADDRESS": "2317 Sunnydale RD", "CITY": "Greeneville", "COUNTY": "GREENE ", "LAT": "36.065484", "LON": "-82.793403", "NAME": "Sunnyside Volunteer Fire Department", "PHONE": "423-639-2419", "STATE": "TN", "TYPE": "FD", "WFO": "MRX"},
{"ADDRESS": "", "CITY": "Lake City", "COUNTY": "ANDERSON ", "LAT": "36.222945", "LON": "-84.1495805", "NAME": "Lake City Fire Department", "PHONE": "865-426-8612", "STATE": "TN", "TYPE": "FD", "WFO": "MRX"},
{"ADDRESS": "", "CITY": "Andersonville", "COUNTY": "ANDERSON ", "LAT": "36.222045", "LON": "-84.0143915", "NAME": "Andersonville Volunteer Fire Department", "PHONE": "865-494-0563", "STATE": "TN", "TYPE": "FD", "WFO": "MRX"},
{"ADDRESS": "", "CITY": "Talbott", "COUNTY": "HAMBLEN", "LAT": "36.157569", "LON": "-83.4129215", "NAME": "West Hablen County Volunteer Fire Department", "PHONE": "423-581-2003", "STATE": "TN", "TYPE": "FD", "WFO": "MRX"},
{"ADDRESS": "55 OreBankRD", "CITY": "Mosheim", "COUNTY": "GREENE ", "LAT": "36.116622", "LON": "-82.981602", "NAME": "OreBank Volunteer Fire Department", "PHONE": "423-638-7799", "STATE": "TN", "TYPE": "FD", "WFO": "MRX"},
{"ADDRESS": "", "CITY": "Luttrell", "COUNTY": "UNION", "LAT": "36.205782", "LON": "-83.75813", "NAME": "Luttrell Volunteer Fire Department", "PHONE": "865-992-5244", "STATE": "TN", "TYPE": "FD", "WFO": "MRX"},
{"ADDRESS": "1944 HWY 116", "CITY": "Caryville", "COUNTY": "CAMPBELL ", "LAT": "36.25650724", "LON": "-84.18278695", "NAME": "Ridgewood Volunteer Fire Department", "PHONE": "865-426-2653", "STATE": "TN", "TYPE": "FD", "WFO": "MRX"},
{"ADDRESS": "700 Greystone RD", "CITY": "Greeneville", "COUNTY": "GREENE ", "LAT": "36.098208", "LON": "-82.7647515", "NAME": "Camp Creek Volunteer Fire Department", "PHONE": "423-638-1702", "STATE": "TN", "TYPE": "FD", "WFO": "MRX"},
{"ADDRESS": "8595 McDonald RD", "CITY": "Mohawk", "COUNTY": "GREENE ", "LAT": "36.158877", "LON": "-83.1289905", "NAME": "McDonald Volunteer Fire Department", "PHONE": "423-235-4460", "STATE": "TN", "TYPE": "FD", "WFO": "MRX"},
{"ADDRESS": "", "CITY": "Maynardville", "COUNTY": "UNION", "LAT": "36.2478571", "LON": "-83.8048869", "NAME": "Paulette Volunteer Fire Department", "PHONE": "865-992-2293", "STATE": "TN", "TYPE": "FD", "WFO": "MRX"},
{"ADDRESS": "", "CITY": "Maynardville", "COUNTY": "UNION", "LAT": "36.250242", "LON": "-83.820383", "NAME": "Maynardville Volunteer Fire Department", "PHONE": "865-992-7022", "STATE": "TN", "TYPE": "FD", "WFO": "MRX"},
{"ADDRESS": "4839 Old Highway 63", "CITY": "Caryville", "COUNTY": "CAMPBELL ", "LAT": "36.30331256", "LON": "-84.22256216", "NAME": "Caryville Volunteer Fire Department", "PHONE": "423-562-8741", "STATE": "TN", "TYPE": "FD", "WFO": "MRX"},
{"ADDRESS": "", "CITY": "Robbins", "COUNTY": "SCOTT", "LAT": "36.34737", "LON": "-84.6042605", "NAME": "South Scott County Volunteer Fire Department", "PHONE": "423-627-1700", "STATE": "TN", "TYPE": "FD", "WFO": "MRX"},
{"ADDRESS": "245 McDonald RD", "CITY": "Midway", "COUNTY": "GREENE ", "LAT": "36.175797", "LON": "-82.9999935", "NAME": "Midway Volunteer Fire Department", "PHONE": "423-422-4929", "STATE": "TN", "TYPE": "FD", "WFO": "MRX"},
{"ADDRESS": "", "CITY": "Rugby", "COUNTY": "MORGAN ", "LAT": "36.3630708", "LON": "-84.7053465", "NAME": "Clear Fork Area Volunteer Fire Department", "PHONE": "000-000-0000", "STATE": "TN", "TYPE": "FD", "WFO": "MRX"},
{"ADDRESS": "", "CITY": "Morristown", "COUNTY": "HAMBLEN", "LAT": "36.213612", "LON": "-83.294342", "NAME": "City of Morristown Fire Department", "PHONE": "423-585-4651", "STATE": "TN", "TYPE": "FD", "WFO": "MRX"},
{"ADDRESS": "", "CITY": "Morristown", "COUNTY": "HAMBLEN", "LAT": "36.213612", "LON": "-83.294342", "NAME": "South Hamblen County Volunteer Fire Department", "PHONE": "423-581-9447", "STATE": "TN", "TYPE": "FD", "WFO": "MRX"},
{"ADDRESS": "", "CITY": "Greeneville", "COUNTY": "GREENE ", "LAT": "36.162717", "LON": "-82.8311525", "NAME": "Debusk Volunteer Fire Department", "PHONE": "423-636-1111", "STATE": "TN", "TYPE": "FD", "WFO": "MRX"},
{"ADDRESS": "710 W Summer ST", "CITY": "Greeneville", "COUNTY": "GREENE ", "LAT": "36.16668", "LON": "-82.843254", "NAME": "Greeneville Fire Department", "PHONE": "423-638-4243", "STATE": "TN", "TYPE": "FD", "WFO": "MRX"},
{"ADDRESS": "250 Mount Paran RD", "CITY": "Jacksboro", "COUNTY": "CAMPBELL ", "LAT": "36.32090322", "LON": "-84.17010299", "NAME": "Pinecrest Volunteer Fire Department", "PHONE": "423-562-7333", "STATE": "TN", "TYPE": "FD", "WFO": "MRX"},
{"ADDRESS": "", "CITY": "Mosheim", "COUNTY": "GREENE ", "LAT": "36.188403", "LON": "-82.9711205", "NAME": "Mosheim Volunteer Fire Department", "PHONE": "423-422-7227", "STATE": "TN", "TYPE": "FD", "WFO": "MRX"},
{"ADDRESS": "1000 Main ST", "CITY": "Mosheim", "COUNTY": "GREENE ", "LAT": "36.189405", "LON": "-82.9593", "NAME": "Town of Mosheim Volunteer Fire Department", "PHONE": "423-422-7401", "STATE": "TN", "TYPE": "FD", "WFO": "MRX"},
{"ADDRESS": "", "CITY": "Erwin", "COUNTY": "UNICOI ", "LAT": "36.12813", "LON": "-82.426661", "NAME": "Erwin Fire Department", "PHONE": "423-743-5201", "STATE": "TN", "TYPE": "FD", "WFO": "MRX"},
{"ADDRESS": "585 Main ST", "CITY": "Jacksboro", "COUNTY": "CAMPBELL ", "LAT": "36.33024288", "LON": "-84.1827426", "NAME": "Jacksboro Fire Department", "PHONE": "423-562-9842", "STATE": "TN", "TYPE": "FD", "WFO": "MRX"},
{"ADDRESS": "2634 Highway 107", "CITY": "Chuckey", "COUNTY": "WASHINGTON ", "LAT": "36.15219", "LON": "-82.598364", "NAME": "Nolichuckey Valley Volunteer Fire Department", "PHONE": "423-257-2803", "STATE": "TN", "TYPE": "FD", "WFO": "MRX"},
{"ADDRESS": "787 Noes Chapel RD", "CITY": "Morristown", "COUNTY": "HAMBLEN", "LAT": "36.240714", "LON": "-83.3107005", "NAME": "North Hamblen County Volunteer Fire Department", "PHONE": "423-586-9435", "STATE": "TN", "TYPE": "FD", "WFO": "MRX"},
{"ADDRESS": "145 Alexander ST", "CITY": "Tusculum", "COUNTY": "GREENE ", "LAT": "36.175914", "LON": "-82.75572", "NAME": "Tusculum Volunteer Fire Department", "PHONE": "423-638-8068", "STATE": "TN", "TYPE": "FD", "WFO": "MRX"},
{"ADDRESS": "", "CITY": "Erwin", "COUNTY": "UNICOI ", "LAT": "36.1400561", "LON": "-82.4127504", "NAME": "Southside Volunteer Fire Department", "PHONE": "423-743-1881", "STATE": "TN", "TYPE": "FD", "WFO": "MRX"},
{"ADDRESS": "251 Knob RD", "CITY": "Rutledge", "COUNTY": "GRAINGER ", "LAT": "36.275229", "LON": "-83.512953", "NAME": "Rutledge Volunteer Fire Department", "PHONE": "865-828-5700", "STATE": "TN", "TYPE": "FD", "WFO": "MRX"},
{"ADDRESS": "9679 Baker HWY", "CITY": "Pioneer", "COUNTY": "SCOTT", "LAT": "36.379872", "LON": "-84.3861825", "NAME": "East 63 Volunteer Fire Department", "PHONE": "423-663-9500", "STATE": "TN", "TYPE": "FD", "WFO": "MRX"},
{"ADDRESS": "", "CITY": "Russellville", "COUNTY": "HAMBLEN", "LAT": "36.25626", "LON": "-83.2009099", "NAME": "East Hamblen Volunteer Fire Department", "PHONE": "423-581-4591", "STATE": "TN", "TYPE": "FD", "WFO": "MRX"},
{"ADDRESS": "", "CITY": "Bulls Gap", "COUNTY": "HAWKINS", "LAT": "36.2456451", "LON": "-83.0317296", "NAME": "Bulls Gap Fire Department", "PHONE": "423-235-2123", "STATE": "TN", "TYPE": "FD", "WFO": "MRX"},
{"ADDRESS": "", "CITY": "Huntsville", "COUNTY": "SCOTT", "LAT": "36.4082754", "LON": "-84.4853128", "NAME": "Huntsville Fire Department", "PHONE": "423-663-3473", "STATE": "TN", "TYPE": "FD", "WFO": "MRX"},
{"ADDRESS": "4061 Highway 81 S", "CITY": "Erwin", "COUNTY": "WASHINGTON ", "LAT": "36.182637", "LON": "-82.4570415", "NAME": "Embreeville Volunteer Fire Department", "PHONE": "423-753-5551", "STATE": "TN", "TYPE": "FD", "WFO": "MRX"},
{"ADDRESS": "", "CITY": "Sharps Chapel", "COUNTY": "UNION", "LAT": "36.343185", "LON": "-83.8283615", "NAME": "Sharps Chapel Volunteer Fire Department", "PHONE": "865-278-3231", "STATE": "TN", "TYPE": "FD", "WFO": "MRX"},
{"ADDRESS": "", "CITY": "La Follette", "COUNTY": "CAMPBELL ", "LAT": "36.377736", "LON": "-84.0808925", "NAME": "Campbell County Fire Service", "PHONE": "423-562-7741", "STATE": "TN", "TYPE": "FD", "WFO": "MRX"},
{"ADDRESS": "121 Fire Department LN", "CITY": "Helenwood", "COUNTY": "SCOTT", "LAT": "36.429318", "LON": "-84.543363", "NAME": "Mid-County Volunteer Fire Department", "PHONE": "423-569-2408", "STATE": "TN", "TYPE": "FD", "WFO": "MRX"},
{"ADDRESS": "", "CITY": "Washburn", "COUNTY": "GRAINGER ", "LAT": "36.327273", "LON": "-83.557124", "NAME": "Washburn Volunteer Fire Department", "PHONE": "865-497-2170", "STATE": "TN", "TYPE": "FD", "WFO": "MRX"},
{"ADDRESS": "", "CITY": "Chuckey", "COUNTY": "GREENE ", "LAT": "36.228678", "LON": "-82.6816805", "NAME": "Newmansville Volunteer Fire Department", "PHONE": "423-639-7246", "STATE": "TN", "TYPE": "FD", "WFO": "MRX"},
{"ADDRESS": "", "CITY": "Limestone", "COUNTY": "WASHINGTON ", "LAT": "36.2284289", "LON": "-82.6647727", "NAME": "Limestone Volunteer Fire Department, Inc.", "PHONE": "423-257-2571", "STATE": "TN", "TYPE": "FD", "WFO": "MRX"},
{"ADDRESS": "4220 Simerly Creek RD", "CITY": "Unicoi", "COUNTY": "UNICOI ", "LAT": "36.181062", "LON": "-82.2611205", "NAME": "Limestone Cove Volunteer Fire Department", "PHONE": "423-743-9007", "STATE": "TN", "TYPE": "FD", "WFO": "MRX"},
{"ADDRESS": "3907 Unicoi DR", "CITY": "Unicoi", "COUNTY": "UNICOI ", "LAT": "36.19791", "LON": "-82.3500135", "NAME": "Unicoi Volunteer Fire Department", "PHONE": "423-743-7912", "STATE": "TN", "TYPE": "FD", "WFO": "MRX"},
{"ADDRESS": "", "CITY": "Roan Mountain", "COUNTY": "CARTER ", "LAT": "36.19349", "LON": "-82.07025", "NAME": "Roan Mountain Volunteer Fire Department", "PHONE": "423-772-3819", "STATE": "TN", "TYPE": "FD", "WFO": "MRX"},
{"ADDRESS": "", "CITY": "Bean Station", "COUNTY": "GRAINGER ", "LAT": "36.3503846", "LON": "-83.2859337", "NAME": "Bean Station Volunteer Fire Department", "PHONE": "865-993-2539", "STATE": "TN", "TYPE": "FD", "WFO": "MRX"},
{"ADDRESS": "3711 HWY 33 S", "CITY": "New Tazewell", "COUNTY": "CLAIBORNE", "LAT": "36.39638664", "LON": "-83.69209065", "NAME": "South Claiborne Volunteer Fire Department", "PHONE": "423-626-5455", "STATE": "TN", "TYPE": "FD", "WFO": "MRX"},
{"ADDRESS": "890 Broken Valley RD", "CITY": "Thorn Hill", "COUNTY": "GRAINGER ", "LAT": "36.378666", "LON": "-83.4251715", "NAME": "Thorn Hill Volunteer Fire Department", "PHONE": "865-767-2085", "STATE": "TN", "TYPE": "FD", "WFO": "MRX"},
{"ADDRESS": "5295 Old HWY 63", "CITY": "Speedwell", "COUNTY": "CLAIBORNE", "LAT": "36.450945", "LON": "-83.9080125", "NAME": "Speedwell Volunteer Fire Department", "PHONE": "423-562-2266", "STATE": "TN", "TYPE": "FD", "WFO": "MRX"},
{"ADDRESS": "19922 Alberta AVE", "CITY": "Oneida", "COUNTY": "SCOTT", "LAT": "36.51673362", "LON": "-84.50536853", "NAME": "Oneida Fire Department", "PHONE": "423-569-8969", "STATE": "TN", "TYPE": "FD", "WFO": "MRX"},
{"ADDRESS": "6490 Horton HWY", "CITY": "Greeneville", "COUNTY": "GREENE ", "LAT": "36.332775", "LON": "-82.8383535", "NAME": "United Volunteer Fire Department", "PHONE": "423-234-2001", "STATE": "TN", "TYPE": "FD", "WFO": "MRX"},
{"ADDRESS": "123 Boone ST", "CITY": "Jonesborough", "COUNTY": "WASHINGTON ", "LAT": "36.297684", "LON": "-82.4705505", "NAME": "Jonesborough Fire Department", "PHONE": "423-753-1053", "STATE": "TN", "TYPE": "FD", "WFO": "MRX"},
{"ADDRESS": "1881 HWY 25E S", "CITY": "New Tazewell", "COUNTY": "CLAIBORNE", "LAT": "36.42429193", "LON": "-83.52802076", "NAME": "Springdale Volunteer Fire Department", "PHONE": "423-526-8414", "STATE": "TN", "TYPE": "FD", "WFO": "MRX"},
{"ADDRESS": "155 Sanders RD", "CITY": "Rogersville", "COUNTY": "HAWKINS", "LAT": "36.365292", "LON": "-82.9851435", "NAME": "Persia Volunteer Fire Department", "PHONE": "423-272-7335", "STATE": "TN", "TYPE": "FD", "WFO": "MRX"},
{"ADDRESS": "203 McBrayer RD", "CITY": "Rogersville", "COUNTY": "HAWKINS", "LAT": "36.384192", "LON": "-83.0533635", "NAME": "Lakeview Volunteer Fire Department", "PHONE": "423-272-8088", "STATE": "TN", "TYPE": "FD", "WFO": "MRX"},
{"ADDRESS": "1420 Milligan HWY", "CITY": "Johnson City", "COUNTY": "CARTER ", "LAT": "36.297036", "LON": "-82.309491", "NAME": "West Carter County Fire Department", "PHONE": "423-926-8802", "STATE": "TN", "TYPE": "FD", "WFO": "MRX"},
{"ADDRESS": "1402 N Broad ST", "CITY": "Tazewell", "COUNTY": "CLAIBORNE", "LAT": "36.448263", "LON": "-83.578113", "NAME": "Tazewell/New Tazewell Fire Department", "PHONE": "423-626-9433", "STATE": "TN", "TYPE": "FD", "WFO": "MRX"},
{"ADDRESS": "", "CITY": "Hampton", "COUNTY": "CARTER ", "LAT": "36.2858847", "LON": "-82.1651624", "NAME": "Hampton Valley Forge Volunteer Fire Department", "PHONE": "423-725-3500", "STATE": "TN", "TYPE": "FD", "WFO": "MRX"},
{"ADDRESS": "189 Highway 131", "CITY": "Treadway", "COUNTY": "HANCOCK", "LAT": "36.42290799", "LON": "-83.22905353", "NAME": "Treadway Volunteer Fire Department", "PHONE": "423-733-0041", "STATE": "TN", "TYPE": "FD", "WFO": "MRX"},
{"ADDRESS": "107 Poga RD", "CITY": "Butler", "COUNTY": "CARTER ", "LAT": "36.27663412", "LON": "-81.99131618", "NAME": "Elk Mills-Poga Volunteer Fire Department", "PHONE": "423-768-3236", "STATE": "TN", "TYPE": "FD", "WFO": "MRX"},
{"ADDRESS": "", "CITY": "Johnson City", "COUNTY": "WASHINGTON ", "LAT": "36.320442", "LON": "-82.3427045", "NAME": "Johnson City Fire Department", "PHONE": "423-975-2840", "STATE": "TN", "TYPE": "FD", "WFO": "MRX"},
{"ADDRESS": "", "CITY": "Rogersville", "COUNTY": "HAWKINS", "LAT": "36.405942", "LON": "-83.0102619", "NAME": "Striggersville Volunteer Fire Department", "PHONE": "423-921-9914", "STATE": "TN", "TYPE": "FD", "WFO": "MRX"},
{"ADDRESS": "24961 Scott HWY", "CITY": "Winfield", "COUNTY": "SCOTT", "LAT": "36.56394637", "LON": "-84.44915619", "NAME": "Winfield Fire Department", "PHONE": "423-569-8464", "STATE": "TN", "TYPE": "FD", "WFO": "MRX"},
{"ADDRESS": "5114 White Oak RD", "CITY": "Duff", "COUNTY": "CAMPBELL ", "LAT": "36.52143285", "LON": "-84.02660744", "NAME": "White Oak Volunteer Fire Department", "PHONE": "423-784-3191", "STATE": "TN", "TYPE": "FD", "WFO": "MRX"},
{"ADDRESS": "106 E Kyle ST", "CITY": "Rogersville", "COUNTY": "HAWKINS", "LAT": "36.408294", "LON": "-83.006712", "NAME": "Rogersville Fire Department", "PHONE": "423-272-7111", "STATE": "TN", "TYPE": "FD", "WFO": "MRX"},
{"ADDRESS": "1309 Gray - Sulphur Springs RD", "CITY": "Jonesborough", "COUNTY": "WASHINGTON ", "LAT": "36.352953", "LON": "-82.537362", "NAME": "Sulphur Springs Volunteer Fire Department", "PHONE": "423-753-8954", "STATE": "TN", "TYPE": "FD", "WFO": "MRX"},
{"ADDRESS": "", "CITY": "Tazewell", "COUNTY": "CLAIBORNE", "LAT": "36.473694", "LON": "-83.5438445", "NAME": "North Tazewell Volunteer Fire Department", "PHONE": "423-626-8299", "STATE": "TN", "TYPE": "FD", "WFO": "MRX"},
{"ADDRESS": "215 Hopson RD", "CITY": "Johnson City", "COUNTY": "CARTER ", "LAT": "36.33058552", "LON": "-82.29790699", "NAME": "Central Community Volunteer Fire Department", "PHONE": "423-928-6114", "STATE": "TN", "TYPE": "FD", "WFO": "MRX"},
{"ADDRESS": "121 S Sycamore ST", "CITY": "Elizabethton", "COUNTY": "CARTER ", "LAT": "36.34718003", "LON": "-82.21445718", "NAME": "Elizabethton Fire Department", "PHONE": "423-542-5421", "STATE": "TN", "TYPE": "FD", "WFO": "MRX"},
{"ADDRESS": "", "CITY": "Fall Branch", "COUNTY": "WASHINGTON ", "LAT": "36.399327", "LON": "-82.63385", "NAME": "Fall Branch Volunteer Fire Department", "PHONE": "423-348-7171", "STATE": "TN", "TYPE": "FD", "WFO": "MRX"},
{"ADDRESS": "132 Model LN", "CITY": "Clairfield", "COUNTY": "CLAIBORNE", "LAT": "36.562353", "LON": "-83.943782", "NAME": "Clear Fork Volunteer Fire Department", "PHONE": "423-784-4540", "STATE": "TN", "TYPE": "FD", "WFO": "MRX"},
{"ADDRESS": "", "CITY": "Jellico", "COUNTY": "CAMPBELL ", "LAT": "36.5855663", "LON": "-84.125732", "NAME": "Jellico Life Saving & Rescue Squad, Inc.", "PHONE": "423-784-9346", "STATE": "TN", "TYPE": "FD", "WFO": "MRX"},
{"ADDRESS": "410 S Main ST", "CITY": "Jellico", "COUNTY": "CAMPBELL ", "LAT": "36.58718536", "LON": "-84.12968287", "NAME": "Jellico Fire Department", "PHONE": "423-784-8240", "STATE": "TN", "TYPE": "FD", "WFO": "MRX"},
{"ADDRESS": "", "CITY": "Watauga", "COUNTY": "CARTER ", "LAT": "36.379806", "LON": "-82.277783", "NAME": "Watauga Volunteer Fire Department Inc.", "PHONE": "423-928-4160", "STATE": "TN", "TYPE": "FD", "WFO": "MRX"},
{"ADDRESS": "5646 Big Dry Run RD", "CITY": "Butler", "COUNTY": "JOHNSON", "LAT": "36.336609", "LON": "-81.90657", "NAME": "Dry Run Volunteer Fire Department", "PHONE": "423-727-4713", "STATE": "TN", "TYPE": "FD", "WFO": "MRX"},
{"ADDRESS": "", "CITY": "Gray", "COUNTY": "WASHINGTON ", "LAT": "36.404016", "LON": "-82.447901", "NAME": "Gray Volunteer Fire Department", "PHONE": "423-477-3851", "STATE": "TN", "TYPE": "FD", "WFO": "MRX"},
{"ADDRESS": "", "CITY": "Cumberland Gap", "COUNTY": "CLAIBORNE", "LAT": "36.548385", "LON": "-83.6845415", "NAME": "Cumberland Gap Volunteer Fire Department", "PHONE": "423-869-0309", "STATE": "TN", "TYPE": "FD", "WFO": "MRX"},
{"ADDRESS": "265 New Jail ST", "CITY": "Sneedville", "COUNTY": "HANCOCK", "LAT": "36.5285976", "LON": "-83.21619719", "NAME": "Sneedville Volunteer Fire Department", "PHONE": "423-733-2254", "STATE": "TN", "TYPE": "FD", "WFO": "MRX"},
{"ADDRESS": "", "CITY": "Harrogate", "COUNTY": "CLAIBORNE", "LAT": "36.571632", "LON": "-83.5859825", "NAME": "North Claiborne County Volunteer Fire Department", "PHONE": "423-869-9243", "STATE": "TN", "TYPE": "FD", "WFO": "MRX"},
{"ADDRESS": "1405 Stanley Valley RD", "CITY": "Surgoinsville", "COUNTY": "SEVIER ", "LAT": "36.496845", "LON": "-82.9151235", "NAME": "Stanley Valley Volunteer Fire Department", "PHONE": "423-345-3445", "STATE": "TN", "TYPE": "FD", "WFO": "MRX"},
{"ADDRESS": "1706 Rob Camp RD", "CITY": "Tazewell", "COUNTY": "HANCOCK", "LAT": "36.55521564", "LON": "-83.40626806", "NAME": "Alanthus Hill Volunteer Fire Department", "PHONE": "423-733-4065", "STATE": "TN", "TYPE": "FD", "WFO": "MRX"},
{"ADDRESS": "", "CITY": "Piney Flats", "COUNTY": "SULLIVAN ", "LAT": "36.4338565", "LON": "-82.3129309", "NAME": "Piney Flats Volunteer Fire Department", "PHONE": "423-538-7011", "STATE": "TN", "TYPE": "FD", "WFO": "MRX"},
{"ADDRESS": "", "CITY": "Trade", "COUNTY": "JOHNSON", "LAT": "36.365289", "LON": "-81.754154", "NAME": "Trade Volunteer Fire Department", "PHONE": "423-726-0259", "STATE": "TN", "TYPE": "FD", "WFO": "MRX"},
{"ADDRESS": "", "CITY": "Surgoinsville", "COUNTY": "HAWKINS", "LAT": "36.500865", "LON": "-82.85003", "NAME": "Town of Surgoinsville Volunteer Fire Department", "PHONE": "423-345-2312", "STATE": "TN", "TYPE": "FD", "WFO": "MRX"},
{"ADDRESS": "114 Herbert Taylor LN", "CITY": "Elizabethton", "COUNTY": "CARTER ", "LAT": "36.410022", "LON": "-82.08315", "NAME": "Stoney Creek Volunteer Fire Department", "PHONE": "423-474-2001", "STATE": "TN", "TYPE": "FD", "WFO": "MRX"},
{"ADDRESS": "113 Rosemont ST", "CITY": "Kingsport", "COUNTY": "SULLIVAN ", "LAT": "36.4791911", "LON": "-82.5918817", "NAME": "Sullivan West Volunteer Fire Department", "PHONE": "423-349-4242", "STATE": "TN", "TYPE": "FD", "WFO": "MRX"},
{"ADDRESS": "", "CITY": "Kingsport", "COUNTY": "SULLIVAN ", "LAT": "36.467979", "LON": "-82.49264", "NAME": "Warriors Path Volunteer Fire Department, Inc.", "PHONE": "423-239-9112", "STATE": "TN", "TYPE": "FD", "WFO": "MRX"},
{"ADDRESS": "", "CITY": "Eidson", "COUNTY": "HAWKINS", "LAT": "36.534111", "LON": "-83.02229", "NAME": "Clinch Valley Volunteer Fire Department", "PHONE": "423-272-0010", "STATE": "TN", "TYPE": "FD", "WFO": "MRX"},
{"ADDRESS": "33 route 3 box 451-a HWY", "CITY": "Sneedville", "COUNTY": "HANCOCK", "LAT": "36.5549767", "LON": "-83.16500054", "NAME": "Camp's Volunteer Fire Department", "PHONE": "423-733-4008", "STATE": "TN", "TYPE": "FD", "WFO": "MRX"},
{"ADDRESS": "3530 Roan Creek RD", "CITY": "Mountain City", "COUNTY": "JOHNSON", "LAT": "36.412065", "LON": "-81.8424", "NAME": "Neva Volunteer Fire Department", "PHONE": "423-727-6042", "STATE": "TN", "TYPE": "FD", "WFO": "MRX"},
{"ADDRESS": "6594 Kyles Ford HWY", "CITY": "Sneedville", "COUNTY": "HANCOCK", "LAT": "36.564966", "LON": "-83.070153", "NAME": "Panther Creek Volunteer Fire Department", "PHONE": "423-733-0063", "STATE": "TN", "TYPE": "FD", "WFO": "MRX"},
{"ADDRESS": "2847 Carter's Valley RD", "CITY": "Church Hill", "COUNTY": "HAWKINS", "LAT": "36.537192", "LON": "-82.7815815", "NAME": "Carter's Valley Fire Department", "PHONE": "423-357-7107", "STATE": "TN", "TYPE": "FD", "WFO": "MRX"},
{"ADDRESS": "", "CITY": "Bluff City", "COUNTY": "SULLIVAN ", "LAT": "36.4745219", "LON": "-82.2611571", "NAME": "Hickory Tree Volunteer Fire Department", "PHONE": "423-538-6121", "STATE": "TN", "TYPE": "FD", "WFO": "MRX"},
{"ADDRESS": "", "CITY": "Bluff City", "COUNTY": "SULLIVAN ", "LAT": "36.474162", "LON": "-82.236014", "NAME": "Avoca Volunteer Fire Department", "PHONE": "423-538-7012", "STATE": "TN", "TYPE": "FD", "WFO": "MRX"},
{"ADDRESS": "", "CITY": "Bluff City", "COUNTY": "SULLIVAN ", "LAT": "36.474162", "LON": "-82.236014", "NAME": "Bluff City Volunteer Fire Department", "PHONE": "423-538-5221", "STATE": "TN", "TYPE": "FD", "WFO": "MRX"},
{"ADDRESS": "", "CITY": "Ewing", "COUNTY": "LEE", "LAT": "36.623733", "LON": "-83.4984305", "NAME": "Thomas Walker Volunteer Fire Department #1", "PHONE": "276-445-4755", "STATE": "VA", "TYPE": "FD", "WFO": "MRX"},
{"ADDRESS": "", "CITY": "Church Hill", "COUNTY": "HAWKINS", "LAT": "36.535965", "LON": "-82.7131535", "NAME": "Church Hill Fire Department", "PHONE": "423-357-6161", "STATE": "TN", "TYPE": "FD", "WFO": "MRX"},
{"ADDRESS": "", "CITY": "Church Hill", "COUNTY": "HAWKINS", "LAT": "36.535965", "LON": "-82.7131535", "NAME": "Goshen Valley Volunteer Fire Department", "PHONE": "423-357-8173", "STATE": "TN", "TYPE": "FD", "WFO": "MRX"},
{"ADDRESS": "211 Hammond AVE", "CITY": "Mount Carmel", "COUNTY": "HAWKINS", "LAT": "36.54658236", "LON": "-82.65585088", "NAME": "Mount Carmel Volunteer Fire Department", "PHONE": "423-357-1013", "STATE": "TN", "TYPE": "FD", "WFO": "MRX"},
{"ADDRESS": "130 Island ST", "CITY": "Kingsport", "COUNTY": "SULLIVAN ", "LAT": "36.543546", "LON": "-82.557603", "NAME": "Kingsport Fire Department", "PHONE": "423-229-9444", "STATE": "TN", "TYPE": "FD", "WFO": "MRX"},
{"ADDRESS": "1679 Blountville BLVD", "CITY": "Blountville", "COUNTY": "SULLIVAN ", "LAT": "36.53217137", "LON": "-82.31570522", "NAME": "Sullivan County Volunteer Fire Department NO 1", "PHONE": "423-323-3421", "STATE": "TN", "TYPE": "FD", "WFO": "MRX"},
{"ADDRESS": "", "CITY": "Blountville", "COUNTY": "SULLIVAN ", "LAT": "36.53578", "LON": "-82.3165099", "NAME": "Tri-Cities Regional Airport Public Safety", "PHONE": "423-325-6333", "STATE": "TN", "TYPE": "FD", "WFO": "MRX"},
{"ADDRESS": "3287 Weaver PIKE", "CITY": "Bristol", "COUNTY": "SULLIVAN ", "LAT": "36.5274", "LON": "-82.1840715", "NAME": "East Sullivan County Volunteer Fire Department", "PHONE": "423-878-2787", "STATE": "TN", "TYPE": "FD", "WFO": "MRX"},
{"ADDRESS": "", "CITY": "Blackwater", "COUNTY": "LEE", "LAT": "36.641076", "LON": "-82.969073", "NAME": "Blackwater Fire Department", "PHONE": "276-346-1533", "STATE": "VA", "TYPE": "FD", "WFO": "MRX"},
{"ADDRESS": "10114 Highway 421 N", "CITY": "Shady Valley", "COUNTY": "JOHNSON", "LAT": "36.521775", "LON": "-81.9325035", "NAME": "Shady Valley Volunteer Fire Department", "PHONE": "423-739-4444", "STATE": "TN", "TYPE": "FD", "WFO": "MRX"},
{"ADDRESS": "1018 Jenkins Hollow RD", "CITY": "Mountain City", "COUNTY": "JOHNSON", "LAT": "36.508563", "LON": "-81.8105625", "NAME": "Second District Volunteer Fire Department", "PHONE": "423-727-1270", "STATE": "TN", "TYPE": "FD", "WFO": "MRX"},
{"ADDRESS": "1758 Bristol Caverns HWY", "CITY": "Bristol", "COUNTY": "SULLIVAN ", "LAT": "36.554049", "LON": "-82.098423", "NAME": "421 Area Emergency Services Volunteer Fire Department, Inc.", "PHONE": "423-878-0054", "STATE": "TN", "TYPE": "FD", "WFO": "MRX"},
{"ADDRESS": "", "CITY": "Jonesville", "COUNTY": "LEE", "LAT": "36.684609", "LON": "-83.13524", "NAME": "Jonesville Volunteer Fire Department", "PHONE": "276-346-2789", "STATE": "VA", "TYPE": "FD", "WFO": "MRX"},