lid,name,lat,lon,value,pe,ts,dur,obstime,zonenum,ffg,ratio,topperformer
NPOL1,North Pole,90.00,00.00,0.00,RR,ts,1001,00-00-0000 00:00:00/00-00-0000 00:00:00,NCZ000,100.00,0,None
HOTN7,BARNARD,35.883333333333,-82.74,0.01,PC,RG,0,Hourly 2018-05-31 06:00:00Z / Precip Acc 2018-05-31 17:45:00Z,9999,9999,9999,None
WLLV2,WILLIS DCP,36.86,-80.48,0.03,PC,RG,0,Hourly 2018-05-31 06:00:00Z / Precip Acc 2018-05-31 17:45:00Z,9999,9999,9999,None
LLDN7,LAKE LOGAN DAM,35.420833333333,-82.925,0.01,PC,RG,0,Hourly 2018-05-31 06:00:00Z / Precip Acc 2018-05-31 17:30:00Z,9999,9999,9999,None
HOPW2,BLUE BEND,37.925556,-80.265556,0.04,PP,RR,1001,Hourly 2018-05-31 06:00:00Z / Hourly 2018-05-31 17:00:00Z,9999,9999,9999,None
ABDV2,ABINGDON,36.685833333333,-81.983333333333,0.11,PC,RG,0,Hourly 2018-05-31 06:00:00Z / Precip Acc 2018-05-31 17:15:00Z,1579258900000,9999,9999,None
FGPT1,MULBERRY,36.5888888888889,-83.2277777777778,0.22,PC,RG,0,Hourly 2018-05-31 06:00:00Z / Precip Acc 2018-05-31 17:30:00Z,1591254900000,9999,9999,None
FNKN7,FRANKLIN DCP,35.2,-83.380277777778,0.01,PC,RG,0,Hourly 2018-05-31 06:00:00Z / Precip Acc 2018-05-31 16:45:00Z,9999,9999,9999,None
LFTT1,Lafayette,36.5208333333333,-86.0261111111111,0.01,PC,RG,0,Hourly 2018-05-31 06:00:00Z / Precip Acc 2018-05-31 17:30:00Z,9999,9999,9999,None
DUNT1,Dunlap,35.3633,-85.3806,0.06,PC,RG,0,Hourly 2018-05-31 06:00:00Z / Precip Acc 2018-05-31 17:00:00Z,1597274100000,9999,9999,None
CLMT1,Coalmont,35.345,-85.6963888888889,0.64,PC,RG,0,Hourly 2018-05-31 06:00:00Z / Precip Acc 2018-05-31 17:30:00Z,9999,9999,9999,None
MTRV2,MOUNT ROGERS,36.807778,-81.424444,0.04,PP,RR,1001,Hourly 2018-05-31 06:00:00Z / Hourly 2018-05-31 17:00:00Z,9999,9999,9999,None
GVST1,TEMPERANCE HALL,36.086944444444,-85.907222222222,0.02,PC,RG,0,Hourly 2018-05-31 06:00:00Z / Precip Acc 2018-05-31 17:00:00Z,9999,9999,9999,None
BDCN7,BEAVERDAM CREEK,35.480833333333,-82.697222222222,0.04,PP,RR,5,Hourly 2018-05-31 06:00:00Z / 05 Min 2018-05-31 17:50:00Z,9999,9999,9999,None
LVGT1,Livingston,36.383333333333,-85.316666666667,0.09,PC,RG,0,Hourly 2018-05-31 06:00:00Z / Precip Acc 2018-05-31 16:30:00Z,9999,9999,9999,None
CTHT1,Carthage,36.248055555556,-85.955277777778,0.05,PC,RG,0,Hourly 2018-05-31 06:00:00Z / Precip Acc 2018-05-31 17:00:00Z,9999,9999,9999,None
PKRN7,PECKERWOOD RIDGE NC,35.186666666667,-84.196666666667,0.02,PP,RR,5,Hourly 2018-05-31 06:00:00Z / 05 Min 2018-05-31 17:35:00Z,1595258200000,9999,9999,None
EMGT1,ELLIS MILLS,36.310833333333,-87.554166666667,0.01,PC,RG,0,Hourly 2018-05-31 06:00:00Z / Precip Acc 2018-05-31 17:00:00Z,9999,9999,9999,None
GLDV2,GLADESBORO IFLOWS,36.672222222222,-80.616111111111,0.48,PP,RR,5,Hourly 2018-05-31 06:00:00Z / 05 Min 2018-05-31 17:30:00Z,9999,9999,9999,None
PTST1,PETROS,36.1,-84.45,0.71,PC,RG,0,Hourly 2018-05-31 06:00:00Z / Precip Acc 2018-05-31 17:30:00Z,1593229100000,9999,9999,None
APLV2,APPALACHIA,36.898333333333,-82.788333333333,0.2,PC,RG,0,Hourly 2018-05-31 06:00:00Z / Precip Acc 2018-05-31 17:30:00Z,9999,9999,9999,None
NBOV2,NEBO IFLOWS,36.9008333333333,-81.425,0.08,PP,RR,1001,Hourly 2018-05-31 06:00:00Z / Hourly 2018-05-31 17:00:00Z,9999,9999,9999,None
DYNT1,DAYTON,35.496666666667,-85.016111111111,0.3,PC,RG,0,Hourly 2018-05-31 06:00:00Z / Precip Acc 2018-05-31 17:00:00Z,1594272210000,9999,9999,None
GIFT1,Grotto Falls,35.6806,-83.4637,0.16,PP,RR,5,Hourly 2018-05-31 06:00:00Z / 05 Min 2018-05-31 17:25:00Z,1584264710000,9999,9999,None
LUTT1,LUTTRELL,36.207777777778,-83.746388888889,0.01,PC,RG,0,Hourly 2018-05-31 06:00:00Z / Precip Acc 2018-05-31 17:30:00Z,1581229000000,9999,9999,None
GVRS1,GREENVILLE 1 S,34.798055555556,-82.365,0.48,PC,RG,0,Hourly 2018-05-31 06:00:00Z / Precip Acc 2018-05-31 17:45:00Z,9999,9999,9999,None
CPRT1,COPPERHILL TN,35.003888888889,-84.386944444444,0.01,PC,RG,0,Hourly 2018-05-31 06:00:00Z / Precip Acc 2018-05-31 17:30:00Z,1596219100000,9999,9999,None
CEPN7,E FK PIGEON RVR,35.461666666667,-82.870277777778,0.11,PP,RR,5,Hourly 2018-05-31 06:00:00Z / 05 Min 2018-05-31 17:50:00Z,9999,9999,9999,None
CHHT1,CHURCH HILL,36.521111111111,-82.7375,0.01,PC,RG,0,Hourly 2018-05-31 06:00:00Z / Precip Acc 2018-05-31 16:45:00Z,1581295900000,9999,9999,None
ROEV2,FALLING BRANCH IFLOWS,37.125277777778,-80.378055555556,0.12,PP,RR,1001,Hourly 2018-05-31 06:00:00Z / Hourly 2018-05-31 17:00:00Z,9999,9999,9999,None
FALT1,FALL CREEK,35.6825,-85.308611111111,1.24,PC,RG,0,Hourly 2018-05-31 06:00:00Z / Precip Acc 2018-05-31 17:30:00Z,9999,9999,9999,None
DISV2,DISMAL,37.247222,-80.854722,0.08,PP,RR,5,Hourly 2018-05-31 06:00:00Z / 05 Min 2018-05-31 17:55:00Z,9999,9999,9999,None
WKHV2,WALKER HOUSE IFLOWS,36.836111111111,-81.578611111111,0.12,PP,RR,5,Hourly 2018-05-31 06:00:00Z / 05 Min 2018-05-31 17:05:00Z,9999,9999,9999,None
STMN7,STRATTON MEADOWS,35.341944444444,-84.029444444444,0.19,PC,RG,0,Hourly 2018-05-31 06:00:00Z / Precip Acc 2018-05-31 17:30:00Z,9999,9999,9999,None
GSP,GSP AIRPORT,34.898888888889,-82.213888888889,0.09,PP,RZ,1001,Hourly 2018-05-31 06:00:00Z / Hourly 2018-05-31 18:00:00Z,9999,9999,9999,None
JNCT1,GAINESBORO,36.433888888889,-85.672222222222,0.13,PC,RG,0,Hourly 2018-05-31 06:00:00Z / Precip Acc 2018-05-31 17:30:00Z,9999,9999,9999,None
TFLG1,TALLULAH FALLS PWR HOUSE,34.731944444444,-83.375833333333,0.03,PC,RG,0,Hourly 2018-05-31 06:00:00Z / Precip Acc 2018-05-31 17:45:00Z,9999,9999,9999,None
PTGV2,PISTOL GAP VA,37.1333333333333,-81.9333333333333,0.08,PP,RR,1001,Hourly 2018-05-31 06:00:00Z / Hourly 2018-05-31 17:00:00Z,1504246290000,9999,9999,None
SNCV2,STONE CREEK AT PENNINGTON GAP,36.773888888889,-83.0325,0.08,PP,RR,1001,Hourly 2018-05-31 06:00:00Z / Hourly 2018-05-31 17:00:00Z,1591285900000,9999,9999,None
SYVN7,SYLVA TVA RAIN,35.373055555556,-83.241388888889,0.01,PC,RG,0,Hourly 2018-05-31 06:00:00Z / Precip Acc 2018-05-31 17:00:00Z,9999,9999,9999,None
NTYG1,Nottely Dam Automated Rain Gage,34.9608333333333,-84.0869444444444,0.03,PC,RG,0,Hourly 2018-05-31 06:00:00Z / Precip Acc 2018-05-31 17:15:00Z,9999,9999,9999,None
HLX,TWIN COUNTY APT,36.7661111111111,-80.8238888888889,0.17,PP,RZ,1001,Hourly 2018-05-31 06:00:00Z / Hourly 2018-05-31 18:00:00Z,9999,9999,9999,None
BUEV2,BUSTED ROCK #2 IFLOWS,36.6888888888889,-80.3744444444444,0.12,PP,RR,1001,Hourly 2018-05-31 06:00:00Z / Hourly 2018-05-31 17:00:00Z,9999,9999,9999,None
BCB,VA TECH AIRPORT,37.2075,-80.408333333333,0.01,PP,RZ,1001,Hourly 2018-05-31 06:00:00Z / Hourly 2018-05-31 18:00:00Z,9999,9999,9999,None
GRTT1,Great Falls,35.808055555556,-85.633611111111,0.2,PC,RG,0,Hourly 2018-05-31 06:00:00Z / Precip Acc 2018-05-31 17:30:00Z,9999,9999,9999,None
FLTN7,FLETCHER 4 W CRN,35.418611111111,-82.556666666667,0.01,PC,RG,0,Hourly 2018-05-31 06:00:00Z / Precip Acc 2018-05-31 17:00:00Z,9999,9999,9999,None
SUGV2,SUGARLOAF MTN IFLOWS,37.238611111111,-80.041944444444,0.04,PP,RR,1001,Hourly 2018-05-31 06:00:00Z / Hourly 2018-05-31 17:00:00Z,9999,9999,9999,None
NFPV2,NF POUND RIVER AT POUND (TAILWATER),37.125555555556,-82.626666666667,0.05,PC,RG,0,Hourly 2018-05-31 06:00:00Z / Precip Acc 2018-05-31 17:30:00Z,1504267000000,9999,9999,None
FTGV2,POUND,37.0944,-82.6994,0.04,PC,RG,0,Hourly 2018-05-31 06:00:00Z / Precip Acc 2018-05-31 17:45:00Z,1504269600000,9999,9999,None
BGLT1,BIG LICK,35.817222222222,-85.036111111111,0.04,PC,RG,0,Hourly 2018-05-31 06:00:00Z / Precip Acc 2018-05-31 17:00:00Z,9999,9999,9999,None
BCDV2,BIG STONE GAP - BIG CHERRY DAM,36.838333333333,-82.671666666667,0.2,PP,RR,1001,Hourly 2018-05-31 06:00:00Z / Hourly 2018-05-31 17:00:00Z,1590256420000,9999,9999,None
BRDG1,Blue Ridge Dam,34.880833333333,-84.281944444444,0.09,PC,RG,0,Hourly 2018-05-31 06:00:00Z / Precip Acc 2018-05-31 17:30:00Z,9999,9999,9999,None
MNYT1,Monterey,36.1425,-85.270833333333,0.24,PC,RG,0,Hourly 2018-05-31 06:00:00Z / Precip Acc 2018-05-31 16:30:00Z,9999,9999,9999,None
WLMS1,WILLIAMSTON DCP,34.620555555556,-82.482222222222,0.16,PC,RG,0,Hourly 2018-05-31 06:00:00Z / Precip Acc 2018-05-31 17:15:00Z,9999,9999,9999,None
STVV2,SALTVILLE PRECIP (TVA),36.887222,-81.7675,0.02,PC,RG,0,Hourly 2018-05-31 06:00:00Z / Precip Acc 2018-05-31 16:45:00Z,9999,9999,9999,None
FONN7,FONTANA,35.450277777778,-83.805277777778,0.1,PC,RG,0,Hourly 2018-05-31 06:00:00Z / Precip Acc 2018-05-31 17:30:00Z,9999,9999,9999,None
CHA,LOVELL FIELD CHATTANOOGA,35.0247222222222,-85.2033333333333,0.03,PP,RZ,1001,Hourly 2018-05-31 06:00:00Z / Hourly 2018-05-31 18:00:00Z,1594241900000,9999,9999,None
LOZ,London,37.083333,-84.066667,0.06,PP,RZ,1001,Hourly 2018-05-31 06:00:00Z / Hourly 2018-05-31 18:00:00Z,9999,9999,9999,None
KRKV2,KONNAROCK,36.6666666666667,-81.6,0.01,PC,RG,0,Hourly 2018-05-31 06:00:00Z / Precip Acc 2018-05-31 17:15:00Z,9999,9999,9999,None
GBOT1,GAINESBORO,36.351111111111,-85.545555555556,0.22,PC,RG,0,Hourly 2018-05-31 06:00:00Z / Precip Acc 2018-05-31 17:30:00Z,9999,9999,9999,None
ARTT1,Arthur TN,36.541666666667,-83.630277777778,0.01,PC,RG,0,Hourly 2018-05-31 06:00:00Z / Precip Acc 2018-05-31 17:15:00Z,1591239000000,9999,9999,None
DURS1,FOUNTAIN INN 2 NE,34.7125,-82.161666666667,0.03,PC,RG,0,Hourly 2018-05-31 06:00:00Z / Precip Acc 2018-05-31 17:45:00Z,9999,9999,9999,None
STWT1,STONEWALL,36.19,-85.904722222222,0.27,PC,RG,0,Hourly 2018-05-31 06:00:00Z / Precip Acc 2018-05-31 17:30:00Z,9999,9999,9999,None
CKEN7,CHEROKEE 8 NE,35.570555555556,-83.242777777778,0.12,PC,RG,0,Hourly 2018-05-31 06:00:00Z / Precip Acc 2018-05-31 17:15:00Z,9999,9999,9999,None
MBHV2,MOUNTAIN LAKE BIO IFLOWS,37.375555555556,-80.524722222222,0.04,PP,RR,5,Hourly 2018-05-31 06:00:00Z / 05 Min 2018-05-31 17:40:00Z,9999,9999,9999,None
HDSN7,HIGHLANDS DCP,35.070277777778,-83.216666666667,0.01,PC,RG,0,Hourly 2018-05-31 06:00:00Z / Precip Acc 2018-05-31 17:45:00Z,9999,9999,9999,None
PEGV2,PENNINGTON GAP,36.75,-83.0166666666667,0.28,PC,RG,0,Hourly 2018-05-31 06:00:00Z / Precip Acc 2018-05-31 17:45:00Z,1591281000000,9999,9999,None
EPWG1,Epworth,34.903333333333,-84.436111111111,0.16,PC,RG,0,Hourly 2018-05-31 06:00:00Z / Precip Acc 2018-05-31 17:00:00Z,9999,9999,9999,None
NATV2,NATURAL TUNNEL VA,36.712777777778,-82.7425,0.32,PP,RR,5,Hourly 2018-05-31 06:00:00Z / 05 Min 2018-05-31 17:25:00Z,1590252100000,9999,9999,None
STLT1,Statesville,36.018333333333,-86.120833333333,0.02,PC,RG,0,Hourly 2018-05-31 06:00:00Z / Precip Acc 2018-05-31 16:30:00Z,9999,9999,9999,None
PFTN7,PISGAH FOREST,35.251388888889,-82.708611111111,0.04,PP,RR,1001,Hourly 2018-05-31 06:00:00Z / Hourly 2018-05-31 06:00:00Z,9999,9999,9999,None
BSRV2,BLUESTONE IFLOWS,37.218055555556,-81.347222222222,0.16,PP,RR,1001,Hourly 2018-05-31 06:00:00Z / Hourly 2018-05-31 17:00:00Z,9999,9999,9999,None
CHSV2,CHESTNUT KNOB IFLOWS,36.6219444444444,-79.9102777777778,0.04,PP,RR,5,Hourly 2018-05-31 06:00:00Z / 05 Min 2018-05-31 17:55:00Z,9999,9999,9999,None
COOT1,Cookeville,36.1069444444444,-85.5047222222222,0.77,PC,RG,0,Hourly 2018-05-31 06:00:00Z / Precip Acc 2018-05-31 17:00:00Z,9999,9999,9999,None
MUGT1,Murfreesboro,35.902777777778,-86.43,0.01,PC,RG,0,Hourly 2018-05-31 06:00:00Z / Precip Acc 2018-05-31 17:30:00Z,9999,9999,9999,None
PBCV2,POUND RIVER BELOW COLD CAMP CREEK NEAR POUND,37.121944444444,-82.598611111111,0.06,PC,RG,0,Hourly 2018-05-31 06:00:00Z / Precip Acc 2018-05-31 17:45:00Z,1504266100000,9999,9999,None
JOEV2,JONES CREEK IFLOWS,36.695,-79.865555555556,0.04,PP,RR,5,Hourly 2018-05-31 06:00:00Z / 05 Min 2018-05-31 17:05:00Z,9999,9999,9999,None
BAMT1,KINGSPORT,36.5,-82.616666666667,0.2,PP,RR,1001,Hourly 2018-05-31 06:00:00Z / Hourly 2018-05-31 17:00:00Z,1579214200000,9999,9999,None
AHNT1,ATHENS,35.467777777778,-84.585555555556,0.2,PC,RG,0,Hourly 2018-05-31 06:00:00Z / Precip Acc 2018-05-31 17:00:00Z,1595218790000,9999,9999,None
DOEV2,DOE RUN CHURCH IFLOWS,36.618611111111,-80.547777777778,0.08,PP,RR,1001,Hourly 2018-05-31 06:00:00Z / Hourly 2018-05-31 17:00:00Z,9999,9999,9999,None
CSV,CROSSVILLE MUNICIPAL AIRPORT,35.954166666667,-85.0825,0.11,PP,RZ,1001,Hourly 2018-05-31 06:00:00Z / Hourly 2018-05-31 18:00:00Z,9999,9999,9999,None
GMU,GREENVILLE DNTOWN APRT,34.848055555556,-82.35,0.18,PP,RZ,1001,Hourly 2018-05-31 06:00:00Z / Hourly 2018-05-31 18:00:00Z,9999,9999,9999,None
CHOG1,Choestoe,34.8,-83.9,0.03,PC,RG,0,Hourly 2018-05-31 06:00:00Z / Precip Acc 2018-05-31 17:15:00Z,9999,9999,9999,None
DRYV2,DRY POND IFLOWS,36.583611111111,-80.344444444444,0.04,PP,RR,1001,Hourly 2018-05-31 06:00:00Z / Hourly 2018-05-31 17:00:00Z,9999,9999,9999,None
EGMN7,EDGEMONT,36.01,-81.7675,0.24,PP,RR,5,Hourly 2018-05-31 06:00:00Z / 05 Min 2018-05-31 17:15:00Z,9999,9999,9999,None
ALPT1,Alpine,36.396944444444,-85.174444444444,0.01,PC,RG,0,Hourly 2018-05-31 06:00:00Z / Precip Acc 2018-05-31 17:15:00Z,9999,9999,9999,None
BYGT1,BYRDSTOWN,36.561111111111,-85.072222222222,0.02,PC,RG,0,Hourly 2018-05-31 06:00:00Z / Precip Acc 2018-05-31 17:30:00Z,9999,9999,9999,None
ROA,ROANOKE AP (ASOS),37.320833,-79.967778,0.03,PP,RZ,1001,Hourly 2018-05-31 06:00:00Z / Hourly 2018-05-31 18:00:00Z,9999,9999,9999,None
RAMN7,RAMSEY,35.590555555556,-81.567222222222,0.04,PC,RG,0,Hourly 2018-05-31 06:00:00Z / Precip Acc 2018-05-31 17:30:00Z,9999,9999,9999,None
ISOT1,ISOLINE,36.078055555556,-84.889444444444,0.35,PC,RG,0,Hourly 2018-05-31 06:00:00Z / Precip Acc 2018-05-31 17:00:00Z,9999,9999,9999,None
LBST1,Lebanon,36.183333333333,-86.2375,0.04,PC,RG,0,Hourly 2018-05-31 06:00:00Z / Precip Acc 2018-05-31 17:30:00Z,9999,9999,9999,None
AUSG1,Austell,33.776388888889,-84.615555555556,0.01,PC,RG,0,Hourly 2018-05-31 06:00:00Z / Precip Acc 2018-05-31 17:45:00Z,9999,9999,9999,None
CHTT1,CHARLESTON,35.281666666667,-84.773055555556,0.13,PC,RG,0,Hourly 2018-05-31 06:00:00Z / Precip Acc 2018-05-31 17:30:00Z,1595217100000,9999,9999,None
MTCG1,MOUNTAIN CITY 2 N,34.929444444444,-83.395833333333,0.1,PP,RZ,1001,Hourly 2018-05-31 06:00:00Z / Hourly 2018-05-31 17:00:00Z,9999,9999,9999,None
IGPV2,Wise,37.0166666666667,-82.6,0.32,PP,RR,5,Hourly 2018-05-31 06:00:00Z / 05 Min 2018-05-31 17:55:00Z,1590268000000,9999,9999,None
SCHG1,Suches 4NW,34.719722222222,-84.065,0.02,PC,RG,0,Hourly 2018-05-31 06:00:00Z / Precip Acc 2018-05-31 17:00:00Z,9999,9999,9999,None
BLF,BLUEFIELD FAA AIRPOR,37.3,-81.216667,0.05,PP,RZ,1001,Hourly 2018-05-31 06:00:00Z / Hourly 2018-05-31 18:00:00Z,9999,9999,9999,None
SPWT1,SPEEDWELL,36.45,-83.8833333333333,0.07,PC,RG,0,Hourly 2018-05-31 06:00:00Z / Precip Acc 2018-05-31 17:30:00Z,1591223900000,9999,9999,None
VJI,VA HIGHLANDS AIRPORT,36.6869444444444,-82.0336111111111,0.16,PP,RZ,1001,Hourly 2018-05-31 06:00:00Z / Hourly 2018-05-31 18:00:00Z,1579256100000,9999,9999,None
RKGW2,RUCKER GAP IFLOWS,37.941944444444,-80.075277777778,0.24,PP,RR,5,Hourly 2018-05-31 06:00:00Z / 05 Min 2018-05-31 17:25:00Z,9999,9999,9999,None
TURT1,TURTLETOWN,35.1825,-84.438333333333,0.08,PC,RG,0,Hourly 2018-05-31 06:00:00Z / Precip Acc 2018-05-31 17:00:00Z,1595255510000,9999,9999,None
NCCT1,Mile Straight,35.2111111,-85.215278,0.09,PC,RG,0,Hourly 2018-05-31 06:00:00Z / Precip Acc 2018-05-31 17:00:00Z,1594252300000,9999,9999,None
MSTT1,EAST MORRISTOWN,36.2725,-83.226111111111,0.03,PC,RG,0,Hourly 2018-05-31 06:00:00Z / Precip Acc 2018-05-31 17:00:00Z,1581259700000,9999,9999,None
SPSV2,SALEM PUMP STN IFLOWS,37.286666666667,-80.075277777778,0.04,PP,RR,5,Hourly 2018-05-31 06:00:00Z / 05 Min 2018-05-31 17:50:00Z,9999,9999,9999,None
PELS1,PELHAM,34.856388888889,-82.226388888889,0.21,PC,RG,0,Hourly 2018-05-31 06:00:00Z / Precip Acc 2018-05-31 17:45:00Z,9999,9999,9999,None
SLAV2,SLATE MTN. IFLOWS,36.778333333333,-80.392222222222,0.08,PP,RR,5,Hourly 2018-05-31 06:00:00Z / 05 Min 2018-05-31 17:55:00Z,9999,9999,9999,None
PGPV2,POUND,37.15,-82.6333333333333,0.04,PP,RR,1001,Hourly 2018-05-31 06:00:00Z / Hourly 2018-05-31 17:00:00Z,1504265900000,9999,9999,None
PTON7,POTATO KNOB,35.413055555556,-83.500555555556,0.04,PP,RR,5,Hourly 2018-05-31 06:00:00Z / 05 Min 2018-05-31 17:55:00Z,9999,9999,9999,None
DNGV2,CLINCH RIVER AT DUNGANNON,36.830555555556,-82.461388888889,0.36,PP,RR,1001,Hourly 2018-05-31 06:00:00Z / Hourly 2018-05-31 17:00:00Z,1590258100000,9999,9999,None
PICV2,POUND RIVER ABOVE INDIAN CREEK NEAR POUND,37.123888888889,-82.608055555556,0.01,PC,RG,0,Hourly 2018-05-31 06:00:00Z / Precip Acc 2018-05-31 17:45:00Z,1504267000000,9999,9999,None
SAMN7,SAMS GAP,35.954444444444,-82.561666666667,0.02,PC,RG,0,Hourly 2018-05-31 06:00:00Z / Precip Acc 2018-05-31 17:15:00Z,9999,9999,9999,None
CEU,OCONEE CO REG AP,34.671944444444,-82.886666666667,0.01,PP,RZ,1001,Hourly 2018-05-31 06:00:00Z / Hourly 2018-05-31 18:00:00Z,9999,9999,9999,None
SMFV2,MF HOLSTON R. AT SEVEN MILE FORD IFLW/USGS,36.807222222222,-81.622222222222,0.24,PP,RR,1001,Hourly 2018-05-31 06:00:00Z / Hourly 2018-05-31 17:00:00Z,9999,9999,9999,None
MBLN7,MARBLE,35.1883333333333,-83.9186111111111,0.02,PC,RG,0,Hourly 2018-05-31 06:00:00Z / Precip Acc 2018-05-31 17:15:00Z,1595284000000,9999,9999,None
BMCV2,BIG MOCCASIN CREEK AT GATE CITY,36.642222222222,-82.563611111111,0.04,PP,RR,5,Hourly 2018-05-31 06:00:00Z / 05 Min 2018-05-31 17:55:00Z,1578243200000,9999,9999,None
OQT,OAK RIDGE ASOS,36.0227777777778,-84.2333333333333,0.33,PP,RZ,1001,Hourly 2018-05-31 06:00:00Z / Hourly 2018-05-31 17:00:00Z,1592291200000,9999,9999,None
GGRT1,GREAT FALLS DAM,35.806944444444,-85.636111111111,0.13,PC,RG,0,Hourly 2018-05-31 06:00:00Z / Precip Acc 2018-05-31 17:15:00Z,9999,9999,9999,None
MRNV2,MARION TVA RG,36.8544444444444,-81.4819444444445,0.14,PC,RG,0,Hourly 2018-05-31 06:00:00Z / Precip Acc 2018-05-31 17:30:00Z,9999,9999,9999,None
REDG1,Reidsville 3W,32.078333333333,-82.1775,0.02,PC,RG,0,Hourly 2018-05-31 06:00:00Z / Precip Acc 2018-05-31 17:00:00Z,9999,9999,9999,None
MATW2,MATAOKA IFLOWS,37.41,-81.248333333333,0.04,PP,RR,1001,Hourly 2018-05-31 06:00:00Z / Hourly 2018-05-31 17:00:00Z,9999,9999,9999,None
LEBV2,LEBANON,36.9091666666667,-82.0608333333333,0.05,PC,RG,0,Hourly 2018-05-31 06:00:00Z / Precip Acc 2018-05-31 17:30:00Z,1590276410000,9999,9999,None
PELT1,Pelham,35.296666666667,-85.869722222222,0.36,PC,RG,0,Hourly 2018-05-31 06:00:00Z / Precip Acc 2018-05-31 17:00:00Z,9999,9999,9999,None
SKYN7,SKYLAND 5 W CRN,35.495,-82.615,0.01,PC,RG,0,Hourly 2018-05-31 06:00:00Z / Precip Acc 2018-05-31 17:00:00Z,9999,9999,9999,None
CKYT1,Chuckey,36.219166666667,-82.702777777778,0.08,PC,RG,0,Hourly 2018-05-31 06:00:00Z / Precip Acc 2018-05-31 17:30:00Z,1585235810000,9999,9999,None
EFLN7,TUXEDO HYDRO STATION,35.245833333333,-82.389166666667,0.01,PP,RZ,1001,Hourly 2018-05-31 06:00:00Z / Hourly 2018-05-31 16:00:00Z,9999,9999,9999,None
POTV2,POTTS MTN. IFLOWS,37.536111111111,-80.230277777778,0.04,PP,RR,5,Hourly 2018-05-31 06:00:00Z / 05 Min 2018-05-31 17:30:00Z,9999,9999,9999,None
YOSV2,YOST IFLOWS,38.051666666667,-79.541111111111,0.04,PP,RR,5,Hourly 2018-05-31 06:00:00Z / 05 Min 2018-05-31 17:30:00Z,9999,9999,9999,None
PKVT1,PIKEVILLE,35.608888888889,-85.193888888889,0.77,PC,RG,0,Hourly 2018-05-31 06:00:00Z / Precip Acc 2018-05-31 17:00:00Z,1597297500000,9999,9999,None
AVLN7,ASHEVILLE,35.609166666667,-82.578611111111,0.01,PC,RG,0,Hourly 2018-05-31 06:00:00Z / Precip Acc 2018-05-31 17:00:00Z,9999,9999,9999,None
WTBT1,WARTBURG,36.1166666666667,-84.6,0.39,PC,RG,0,Hourly 2018-05-31 06:00:00Z / Precip Acc 2018-05-31 17:30:00Z,1593243000000,9999,9999,None
EGRW2,EGERIA IFLOWS,37.5422222222222,-81.1994444444444,0.08,PP,RR,1001,Hourly 2018-05-31 06:00:00Z / Hourly 2018-05-31 17:00:00Z,9999,9999,9999,None
LXGV2,LEXINGTON IFLOWS,37.791111111111,-79.43,0.04,PP,RR,1001,Hourly 2018-05-31 06:00:00Z / Hourly 2018-05-31 17:00:00Z,9999,9999,9999,None
SWET1,SWEETWATER,35.5833333333333,-84.4666666666667,0.02,PC,RG,0,Hourly 2018-05-31 06:00:00Z / Precip Acc 2018-05-31 17:00:00Z,1586238790000,9999,9999,None
PIPW2,BLUESTONE R. AT PIPESTEM,37.543888888889,-81.010555555556,0.1,PC,RG,0,Hourly 2018-05-31 06:00:00Z / Precip Acc 2018-05-31 17:00:00Z,9999,9999,9999,None
HIWN7,HIWASSEE DAM,35.150797,-84.178608,0.02,PC,RG,0,Hourly 2018-05-31 06:00:00Z / Precip Acc 2018-05-31 17:30:00Z,1595257900000,9999,9999,None
CSQG1,SOQUE RIVER AT GA 197 NR CLARKSVILLE,34.618611111111,-83.528888888889,0.01,PC,RG,0,Hourly 2018-05-31 06:00:00Z / Precip Acc 2018-05-31 17:00:00Z,9999,9999,9999,None
VSUV2,VESUVIUS IFLOWS,37.915,-79.1944444444444,0.12,PP,RR,5,Hourly 2018-05-31 06:00:00Z / 05 Min 2018-05-31 17:40:00Z,9999,9999,9999,None
BBKT1,BURBANK TN,36.148333333333,-82.101388888889,0.03,PC,RG,0,Hourly 2018-05-31 06:00:00Z / Precip Acc 2018-05-31 17:45:00Z,1580229500000,9999,9999,None
CLET1,CLEVELAND,35.183611111111,-84.821388888889,0.07,PC,RG,0,Hourly 2018-05-31 06:00:00Z / Precip Acc 2018-05-31 17:00:00Z,1595219249000,9999,9999,None
JCSS1,JOCASSEE DAM,34.956944444444,-82.919722222222,0.05,PP,RZ,1001,Hourly 2018-05-31 06:00:00Z / Hourly 2018-05-31 16:00:00Z,9999,9999,9999,None
SOLT1,BEAVER CREEK AT SOLWAY,35.965,-84.178611111111,0.58,PC,RG,0,Hourly 2018-05-31 06:00:00Z / Precip Acc 2018-05-31 17:10:00Z,1592261000000,9999,9999,None
RLDV2,RICHLANDS PRECIP (TVA),37.0961111111111,-81.8358333333333,0.02,PC,RG,0,Hourly 2018-05-31 06:00:00Z / Precip Acc 2018-05-31 17:30:00Z,9999,9999,9999,None
SLMN7,SUGARLOAF MTN,35.406666666667,-82.268333333333,0.56,PP,RR,5,Hourly 2018-05-31 06:00:00Z / 05 Min 2018-05-31 17:20:00Z,9999,9999,9999,None
NRST1,NORRIS DAM,36.223888888889,-84.091666666667,0.01,PC,RG,0,Hourly 2018-05-31 06:00:00Z / Precip Acc 2018-05-31 17:45:00Z,1590211000000,9999,9999,None
GYH,DONALDSON CENTER AP,34.758333333333,-82.376388888889,0.41,PP,RZ,1001,Hourly 2018-05-31 06:00:00Z / Hourly 2018-05-31 11:00:00Z,9999,9999,9999,None
WATN7,WATERVILLE,35.774166666667,-83.098055555556,0.01,PP,RZ,1001,Hourly 2018-05-31 06:00:00Z / Hourly 2018-05-31 16:00:00Z,9999,9999,9999,None
DRGV2,FLAT GAP,37.0166666666667,-82.6833333333333,0.68,PP,RR,1001,Hourly 2018-05-31 06:00:00Z / Hourly 2018-05-31 17:00:00Z,1590269100000,9999,9999,None
JKL,Jackson,37.6,-83.3166666666667,0.08,PP,RZ,1001,Hourly 2018-05-31 06:00:00Z / Hourly 2018-05-31 18:00:00Z,9999,9999,9999,None
CSVT1,Crossville NCDC CRN Site,36.013888888889,-85.134444444444,0.16,PP,RG,5,Hourly 2018-05-31 06:00:00Z / 05 Min 2018-05-31 17:10:00Z,9999,9999,9999,None
GTTT1,GATLINBURG,35.713611,-83.5125,0.09,PC,RG,0,Hourly 2018-05-31 06:00:00Z / Precip Acc 2018-05-31 17:30:00Z,1584264710000,9999,9999,None
NOTV2,NORTH MTN IFLOWS,37.845555555556,-79.606111111111,0.04,PP,RR,5,Hourly 2018-05-31 06:00:00Z / 05 Min 2018-05-31 17:15:00Z,9999,9999,9999,None
RACT1,Raccoon Mountain,35.056388888889,-85.3875,0.02,PC,RG,0,Hourly 2018-05-31 06:00:00Z / Precip Acc 2018-05-31 17:00:00Z,1594217900000,9999,9999,None
DELT1,DEL RIO,35.886666666667,-82.974444444444,0.01,PC,RG,0,Hourly 2018-05-31 06:00:00Z / Precip Acc 2018-05-31 17:30:00Z,1582234221000,9999,9999,None
LBYV2,LITTLE BRUSHY IFLOWS,36.988055555556,-81.475555555556,0.03,PP,RR,5,Hourly 2018-05-31 06:00:00Z / 05 Min 2018-05-31 17:25:00Z,9999,9999,9999,None
CTNN7,CANTON,35.548333333333,-82.828888888889,0.01,PC,RG,0,Hourly 2018-05-31 06:00:00Z / Precip Acc 2018-05-31 17:45:00Z,9999,9999,9999,None
HKY,HICKORY REGIONAL AP,35.741111111111,-81.389444444444,0.01,PP,RZ,1001,Hourly 2018-05-31 06:00:00Z / Hourly 2018-05-31 18:00:00Z,9999,9999,9999,None
ALRW2,ALDERSON IFLOWS,37.727777777778,-80.646666666667,0.16,PP,RR,5,Hourly 2018-05-31 06:00:00Z / 05 Min 2018-05-31 17:30:00Z,9999,9999,9999,None
TRUV2,TROUTVILLE IFLOWS,37.425555555556,-79.870277777778,0.08,PP,RR,1001,Hourly 2018-05-31 06:00:00Z / Hourly 2018-05-31 17:00:00Z,9999,9999,9999,None
DERT1,DEROSSETT,35.963055555556,-85.281388888889,0.08,PC,RG,0,Hourly 2018-05-31 06:00:00Z / Precip Acc 2018-05-31 17:15:00Z,9999,9999,9999,None
BYBV2,BONNY BLUE,36.8327777777778,-83.0755555555555,0.12,PP,RR,1001,Hourly 2018-05-31 06:00:00Z / Hourly 2018-05-31 17:00:00Z,1591286600000,9999,9999,None
GIRG1,Girard 8NNW,33.15,-81.7561111111111,0.01,PC,RG,0,Hourly 2018-05-31 06:00:00Z / Precip Acc 2018-05-31 17:15:00Z,9999,9999,9999,None
COHT1,CORDELL HULL HEADWATER,36.291666666667,-85.938888888889,0.06,PC,RG,0,Hourly 2018-05-31 06:00:00Z / Precip Acc 2018-05-31 17:00:00Z,9999,9999,9999,None
CEHT1,CENTER HILL DAM,36.0975,-85.827222222222,0.34,PC,RG,0,Hourly 2018-05-31 06:00:00Z / Precip Acc 2018-05-31 17:30:00Z,9999,9999,9999,None
FLDT1,Ft. Loudon Dam (Lenoir City 1E),35.7922222222222,-84.2455555555556,0.01,PC,RG,0,Hourly 2018-05-31 06:00:00Z / Precip Acc 2018-05-31 17:15:00Z,1586251410000,9999,9999,None
BMPN7,BLACK MOUNTAIN PARK,35.6075,-82.334444444444,0.08,PP,RR,1001,Hourly 2018-05-31 06:00:00Z / Hourly 2018-05-31 15:00:00Z,9999,9999,9999,None
BLRN7,BLUE ROCK,35.890833333333,-82.179444444444,0.2,PP,RR,1001,Hourly 2018-05-31 06:00:00Z / Hourly 2018-05-31 07:00:00Z,9999,9999,9999,None
HDCG1,Helen,34.700833333333,-83.729444444444,0.09,PC,RG,0,Hourly 2018-05-31 06:00:00Z / Precip Acc 2018-05-31 17:00:00Z,9999,9999,9999,None
NRVV2,NRV AP IFLOWS,37.139166666667,-80.681388888889,0.88,PP,RR,5,Hourly 2018-05-31 06:00:00Z / 05 Min 2018-05-31 17:55:00Z,9999,9999,9999,None
DECT1,DECATUR,35.5222,-84.7964,0.47,PC,RG,0,Hourly 2018-05-31 06:00:00Z / Precip Acc 2018-05-31 17:00:00Z,1594274300000,9999,9999,None
JSST1,JOHN SEVIER FOSSIL PLANT,36.376111111111,-82.961111111111,0.01,PC,RG,0,Hourly 2018-05-31 06:00:00Z / Precip Acc 2018-05-31 17:45:00Z,1581279000000,9999,9999,None
MMTN7,MT MITCHELL DCP/COOP,35.76,-82.270833333333,0.01,PC,RG,0,Hourly 2018-05-31 06:00:00Z / Precip Acc 2018-05-31 17:15:00Z,9999,9999,9999,None
BALW2,BALLARD IFLOWS,37.475,-80.7616666666667,0.36,PP,RR,5,Hourly 2018-05-31 06:00:00Z / 05 Min 2018-05-31 17:30:00Z,9999,9999,9999,None
NEWT1,NEWCOMB,36.544444444444,-84.173055555556,0.03,PC,RG,0,Hourly 2018-05-31 06:00:00Z / Precip Acc 2018-05-31 17:30:00Z,1554262590000,9999,9999,None
RBKV2,WISE,36.9,-82.5333333333333,0.08,PP,RR,1001,Hourly 2018-05-31 06:00:00Z / Hourly 2018-05-31 17:00:00Z,9999,9999,9999,None
BOOT1,BOONE DAM - JOHNSON CITY,36.4411,-82.436388,0.01,PC,RG,0,Hourly 2018-05-31 06:00:00Z / Precip Acc 2018-05-31 17:15:00Z,1579219900000,9999,9999,None
DUFV2,DUFFIELD,36.7166666666667,-82.8,0.05,PC,RG,0,Hourly 2018-05-31 06:00:00Z / Precip Acc 2018-05-31 17:15:00Z,1590238790000,9999,9999,None
WLTN7,WALTERS DAM,35.703888888889,-83.041666666667,0.03,PC,RG,0,Hourly 2018-05-31 06:00:00Z / Precip Acc 2018-05-31 17:15:00Z,9999,9999,9999,None
RMNN7,ROSMAN DCP,35.14,-82.829166666667,0.05,PC,RG,0,Hourly 2018-05-31 06:00:00Z / Precip Acc 2018-05-31 17:15:00Z,9999,9999,9999,None
RDDT1,RODDY,35.765555555556,-84.7775,0.02,PC,RG,0,Hourly 2018-05-31 06:00:00Z / Precip Acc 2018-05-31 17:00:00Z,1586214170000,9999,9999,None
WWLT1,WHITWELL,35.208611111111,-85.519444444444,0.09,PC,RG,0,Hourly 2018-05-31 06:00:00Z / Precip Acc 2018-05-31 17:30:00Z,1597234100000,9999,9999,None
BRCT1,Bullrun Creek near Halls Crossroads,36.114444444444,-83.988333333333,0.01,PC,RG,0,Hourly 2018-05-31 06:00:00Z / Precip Acc 2018-05-31 17:40:00Z,1592283300000,9999,9999,None
BNHV2,BEN HUR,36.7205555555556,-83.1008333333333,0.24,PP,RR,5,Hourly 2018-05-31 06:00:00Z / 05 Min 2018-05-31 17:35:00Z,1591284000000,9999,9999,None
ORIV2,ORISKANY IFLOWS,37.618055555556,-79.987222222222,0.04,PP,RR,1001,Hourly 2018-05-31 06:00:00Z / Hourly 2018-05-31 17:00:00Z,9999,9999,9999,None
LWB,LEWISBURG AWOS,37.858333333333,-80.399722222222,0.23,PP,RZ,1001,Hourly 2018-05-31 06:00:00Z / Hourly 2018-05-31 18:00:00Z,9999,9999,9999,None
CRWV2,CRAWFORDS RIDGE IFLOWS,37.320833333333,-80.273055555556,0.04,PP,RR,1001,Hourly 2018-05-31 06:00:00Z / Hourly 2018-05-31 17:00:00Z,9999,9999,9999,None
SLLT1,RED BOILING SPRINGS,36.552222222222,-85.857222222222,0.01,PC,RG,0,Hourly 2018-05-31 06:00:00Z / Precip Acc 2018-05-31 17:45:00Z,9999,9999,9999,None
CCVT1,CADES COVE,35.603888888889,-83.782777777778,0.01,PC,RG,0,Hourly 2018-05-31 06:00:00Z / Precip Acc 2018-05-31 17:00:00Z,1589269900000,9999,9999,None
BFMV2,BUFFALO MTN. IFLOWS,36.776944444444,-80.517222222222,0.04,PP,RR,5,Hourly 2018-05-31 06:00:00Z / 05 Min 2018-05-31 17:30:00Z,9999,9999,9999,None
MABW2,MEADOW BLUFF IFLOWS,37.909444444444,-80.667777777778,0.04,PP,RR,5,Hourly 2018-05-31 06:00:00Z / 05 Min 2018-05-31 17:55:00Z,9999,9999,9999,None
BKHV2,ABINGDON,36.7166666666667,-82.0666666666667,0.04,PP,RR,1001,Hourly 2018-05-31 06:00:00Z / Hourly 2018-05-31 17:00:00Z,1578253590000,9999,9999,None
LIBS1,TWELVE MILE CREEK NR LIBERTY,34.801388888889,-82.748611111111,0.27,PC,RG,0,Hourly 2018-05-31 06:00:00Z / Precip Acc 2018-05-31 17:00:00Z,9999,9999,9999,None
SGWN7,WATAUGA R. NR SUGAR GROVE,36.239166666667,-81.822222222222,0.02,PC,RG,0,Hourly 2018-05-31 06:00:00Z / Precip Acc 2018-05-31 17:30:00Z,9999,9999,9999,None
FTBV2,CLINCH RIVER AT FORT BLACKMORE,36.766111111111,-82.5825,0.16,PP,RR,5,Hourly 2018-05-31 06:00:00Z / 05 Min 2018-05-31 17:40:00Z,1590255900000,9999,9999,None
SARG1,Sardis 4SW,32.9375,-81.815555555556,0.01,PC,RG,0,Hourly 2018-05-31 06:00:00Z / Precip Acc 2018-05-31 17:00:00Z,9999,9999,9999,None
PKCV2,ST. CHARLES,36.8,-83.0833333333333,0.16,PP,RR,1001,Hourly 2018-05-31 06:00:00Z / Hourly 2018-05-31 17:00:00Z,1591286100000,9999,9999,None
RBDS1,RICHARD B RUSSELL LAKE NR CALHOUN FALLS SC,34.101111111111,-82.618055555556,0.02,PC,RG,0,Hourly 2018-05-31 06:00:00Z / Precip Acc 2018-05-31 17:00:00Z,9999,9999,9999,None
EFKN7,EAST FORK DAM TANASEE CK,35.213333333333,-83.002222222222,0.01,PP,RZ,1001,Hourly 2018-05-31 06:00:00Z / Hourly 2018-05-31 16:00:00Z,9999,9999,9999,None
CHPT1,CHEATHAM DAM HEADWATER,36.314444444444,-87.2275,0.08,PC,RG,0,Hourly 2018-05-31 06:00:00Z / Precip Acc 2018-05-31 17:00:00Z,9999,9999,9999,None
NFCN7,NEWFOUND CREEK,35.625277777778,-82.705833333333,0.08,PP,RR,1001,Hourly 2018-05-31 06:00:00Z / Hourly 2018-05-31 07:00:00Z,9999,9999,9999,None
SERN7,SPEAR,36.024166666667,-82.021666666667,0.4,PP,RR,5,Hourly 2018-05-31 06:00:00Z / 05 Min 2018-05-31 17:35:00Z,9999,9999,9999,None
HWEG1,Hiawassee,34.883888888889,-83.721666666667,0.01,PC,RG,0,Hourly 2018-05-31 06:00:00Z / Precip Acc 2018-05-31 17:45:00Z,9999,9999,9999,None
PMTV2,BIG STONE GAP,36.85,-82.65,0.32,PP,RR,1001,Hourly 2018-05-31 06:00:00Z / Hourly 2018-05-31 17:00:00Z,1590256410000,9999,9999,None
BVDN7,BREVARD DCP,35.236666666667,-82.7225,0.01,PC,RG,0,Hourly 2018-05-31 06:00:00Z / Precip Acc 2018-05-31 16:45:00Z,9999,9999,9999,None
RSTV2,ROANOKE R AT STP IFLOWS,37.266944444444,-79.910833333333,0.04,PP,RR,5,Hourly 2018-05-31 06:00:00Z / 05 Min 2018-05-31 17:30:00Z,9999,9999,9999,None
MPYN7,MURPHY,35.077777777778,-84.028333333333,0.02,PC,RG,0,Hourly 2018-05-31 06:00:00Z / Precip Acc 2018-05-31 17:00:00Z,1595291100000,9999,9999,None
WBOT1,Watts Bar Dam,35.6166666666667,-84.7833333333333,0.5,PC,RG,0,Hourly 2018-05-31 06:00:00Z / Precip Acc 2018-05-31 17:15:00Z,1594293000000,9999,9999,None
BTDN7,BEETREE DAM,35.6425,-82.399722222222,0.03,PC,RG,0,Hourly 2018-05-31 06:00:00Z / Precip Acc 2018-05-31 17:45:00Z,9999,9999,9999,None
CLUG1,Carsonville Hwy. 19,32.721388888889,-84.2325,0.16,PC,RG,0,Hourly 2018-05-31 06:00:00Z / Precip Acc 2018-05-31 17:45:00Z,9999,9999,9999,None
ACST1,Ashland City,36.32,-87.051111111111,0.05,PC,RG,0,Hourly 2018-05-31 06:00:00Z / Precip Acc 2018-05-31 17:30:00Z,9999,9999,9999,None
PKST1,PARKSVILLE,35.095,-84.649166666667,0.2,PC,RG,0,Hourly 2018-05-31 06:00:00Z / Precip Acc 2018-05-31 17:30:00Z,1596211390000,9999,9999,None
HLTV2,HILTON,36.65,-82.4666666666667,0.19,PC,RG,0,Hourly 2018-05-31 06:00:00Z / Precip Acc 2018-05-31 17:45:00Z,1578251200000,9999,9999,None
BONN7,BOONE RG (TVA),36.1963888888889,-81.67,0.03,PC,RG,0,Hourly 2018-05-31 06:00:00Z / Precip Acc 2018-05-31 17:15:00Z,9999,9999,9999,None
TUNN7,TUNI CREEK NC,35.088055555556,-83.738888888889,0.14,PP,RR,5,Hourly 2018-05-31 06:00:00Z / 05 Min 2018-05-31 17:05:00Z,1595294300000,9999,9999,None
PEEV2,PETERS CREEK IFLOWS,37.322777777778,-80.02,0.04,PP,RR,1001,Hourly 2018-05-31 06:00:00Z / Hourly 2018-05-31 17:00:00Z,9999,9999,9999,None
TZWV2,TAZEWELL RAIN GAGE (TVA),37.125833,-81.558056,0.01,PC,RG,0,Hourly 2018-05-31 06:00:00Z / Precip Acc 2018-05-31 17:30:00Z,9999,9999,9999,None
PENT1,Penitentiary Branch,36.439166666667,-85.595,0.16,PC,RG,0,Hourly 2018-05-31 06:00:00Z / Precip Acc 2018-05-31 17:30:00Z,9999,9999,9999,None
WTMV2,WHITETOP MOUNTAIN VA,36.633333333333,-81.6,0.04,PP,RR,1001,Hourly 2018-05-31 06:00:00Z / Hourly 2018-05-31 17:00:00Z,1489284800000,9999,9999,None
PKTN7,PUMPKINTOWN,35.252777777778,-83.245277777778,0.64,PP,RR,5,Hourly 2018-05-31 06:00:00Z / 05 Min 2018-05-31 17:50:00Z,9999,9999,9999,None
TUSG1,TITUS 2SW,34.950555555556,-83.615555555556,0.01,PC,RG,0,Hourly 2018-05-31 06:00:00Z / Precip Acc 2018-05-31 16:45:00Z,9999,9999,9999,None
SOPS1,SOUTHSIDE PARK,34.742222222222,-82.302777777778,0.28,PP,RZ,5,05 Min 2018-05-31 06:00:00Z / 05 Min 2018-05-31 17:25:00Z,9999,9999,9999,None
MLDS1,HOLLY TREE GOLF COURSE,34.787222222222,-82.255555555556,0.25,PP,RZ,5,05 Min 2018-05-31 06:00:00Z / 05 Min 2018-05-31 17:25:00Z,9999,9999,9999,None
SMSS1,E SIMPSONVILLE FD,34.794444444444,-82.228611111111,0.04,PP,RZ,5,05 Min 2018-05-31 06:00:00Z / 05 Min 2018-05-31 17:25:00Z,9999,9999,9999,None
BRUS1,PAVILION,34.885277777778,-82.301111111111,0.07,PP,RZ,5,05 Min 2018-05-31 06:00:00Z / 05 Min 2018-05-31 17:25:00Z,9999,9999,9999,None
EECG1,East Ellijay,34.684166666667,-84.458611111111,0.01,PC,RG,0,Precip Acc 2018-05-31 06:00:00Z / Precip Acc 2018-05-31 17:30:00Z,9999,9999,9999,None
BYNG1,Byron,32.691944444444,-83.701111111111,0.01,PC,RG,0,Precip Acc 2018-05-31 06:00:00Z / Precip Acc 2018-05-31 17:15:00Z,9999,9999,9999,None
ELIG1,Ellijay,34.676111111111,-84.506666666667,0.03,PC,RG,0,Precip Acc 2018-05-31 06:00:00Z / Precip Acc 2018-05-31 16:45:00Z,9999,9999,9999,None
WETG1,West Point Dam,32.918333333333,-85.188333333333,0.02,PC,RG,0,Precip Acc 2018-05-31 06:00:00Z / Precip Acc 2018-05-31 17:15:00Z,9999,9999,9999,None
ETNG1,Eton,34.827777777778,-84.850833333333,0.01,PC,RG,0,Precip Acc 2018-05-31 06:00:00Z / Precip Acc 2018-05-31 17:00:00Z,9999,9999,9999,None
WCKG1,Fort Oglethorpe,34.957222222222,-85.205555555556,0.01,PC,RG,0,Precip Acc 2018-05-31 06:00:00Z / Precip Acc 2018-05-31 17:15:00Z,9999,9999,9999,None
BVLG1,Byromville,32.195555555556,-83.902222222222,0.02,PC,RG,0,Precip Acc 2018-05-31 06:00:00Z / Precip Acc 2018-05-31 17:45:00Z,9999,9999,9999,None
SNKG1,Whitesburg,33.529444444444,-84.928333333333,0.04,PC,RG,0,Precip Acc 2018-05-31 06:00:00Z / Precip Acc 2018-05-31 17:45:00Z,9999,9999,9999,None
MNTG1,Montezuma,32.293055555556,-84.043611111111,0.06,PC,RG,0,Precip Acc 2018-05-31 06:00:00Z / Precip Acc 2018-05-31 17:45:00Z,9999,9999,9999,None
CLFG1,Clinchfield,32.426666666667,-83.644444444444,0.73,PC,RG,0,Precip Acc 2018-05-31 06:00:00Z / Precip Acc 2018-05-31 17:15:00Z,9999,9999,9999,None
TNCG1,Dunwoody,33.9233333333333,-84.3038888888889,0.01,PC,RG,0,Precip Acc 2018-05-31 06:00:00Z / Precip Acc 2018-05-31 17:45:00Z,9999,9999,9999,None
CHIG1,Chickamauga,34.865833333333,-85.288888888889,0.06,PC,RG,0,Precip Acc 2018-05-31 06:00:00Z / Precip Acc 2018-05-31 17:15:00Z,9999,9999,9999,None
HOLG1,Chatsworth,34.716666666667,-84.77,0.01,PC,RG,0,Precip Acc 2018-05-31 06:00:00Z / Precip Acc 2018-05-31 17:00:00Z,9999,9999,9999,None
MACG1,Macon,32.838611111111,-83.620555555556,0.01,PC,RG,0,Precip Acc 2018-05-31 06:00:00Z / Precip Acc 2018-05-31 17:30:00Z,9999,9999,9999,None
YELG1,Northeast Lithonia,33.772777777778,-84.058333333333,6.95,PC,RG,0,Precip Acc 2018-05-31 06:00:00Z / Precip Acc 2018-05-31 17:45:00Z,9999,9999,9999,None
SCKG1,Ringgold,34.9186,-85.1255,0.01,PC,RG,0,Precip Acc 2018-05-31 06:00:00Z / Precip Acc 2018-05-31 17:30:00Z,9999,9999,9999,None
MNCG1,Ellijay,34.703055555556,-84.539444444444,0.03,PC,RG,0,Precip Acc 2018-05-31 06:00:00Z / Precip Acc 2018-05-31 17:15:00Z,9999,9999,9999,None
HLCG1,Northeast Canton,34.265,-84.473888888889,0.03,PC,RG,0,Precip Acc 2018-05-31 06:00:00Z / Precip Acc 2018-05-31 17:00:00Z,9999,9999,9999,None
HILG1,Frolona,33.340555555556,-85.226944444444,0.01,PC,RG,0,Precip Acc 2018-05-31 06:00:00Z / Precip Acc 2018-05-31 16:45:00Z,9999,9999,9999,None
DARN7,DAVIDSON RIVER RAWS,35.350555555556,-82.778611111111,0.02,PC,RG,0,Hourly 2018-05-31 06:04:00Z / Precip Acc 2018-05-31 17:04:00Z,9999,9999,9999,None
MDWG1,Midway,31.78,-81.44,0.01,PC,RG,0,Hourly 2018-05-31 06:04:00Z / Precip Acc 2018-05-31 17:04:00Z,9999,9999,9999,None
BLDT1,BLEDSOE STATE FOREST,35.681944444444,-85.273333333333,0.19,PC,RG,0,Hourly 2018-05-31 06:05:00Z / Precip Acc 2018-05-31 17:05:00Z,1561296450000,9999,9999,None
TCCG1,Suches 6NW,34.765,-84.0744444444444,0.01,PC,RG,0,Hourly 2018-05-31 06:05:00Z / Precip Acc 2018-05-31 17:05:00Z,9999,9999,9999,None
TSQN7,Tusquitee RAWS Murphy,35.0747,-84.1267,0.04,PC,RG,0,Hourly 2018-05-31 06:05:00Z / Precip Acc 2018-05-31 17:05:00Z,1595259410000,9999,9999,None
CPMG1,Suches 6SW,34.63,-84.0975,0.02,PC,RG,0,Hourly 2018-05-31 06:05:00Z / Precip Acc 2018-05-31 17:05:00Z,9999,9999,9999,None
CHON7,CHEOAH RAWS,35.333333333333,-83.816666666667,0.22,PC,RG,0,Hourly 2018-05-31 06:05:00Z / Precip Acc 2018-05-31 17:05:00Z,9999,9999,9999,None
GDCN7,GRANDFATHER RAWS,35.756388888889,-82.043888888889,0.02,PC,RG,0,Hourly 2018-05-31 06:05:00Z / Precip Acc 2018-05-31 17:05:00Z,9999,9999,9999,None
CSFT1,CHUCK SWAN STATE FOREST,36.368888888889,-83.898611111111,0.03,PC,RG,0,Hourly 2018-05-31 06:05:00Z / Precip Acc 2018-05-31 17:05:00Z,1591219000000,9999,9999,None
HCOT1,Morristown,36.2572,-83.2772,0.03,PC,RG,0,Hourly 2018-05-31 06:05:00Z / Precip Acc 2018-05-31 17:05:00Z,1581259410000,9999,9999,None
TOPN7,WAYAH RAWS,35.166666666667,-83.403055555556,0.01,PC,RG,0,Hourly 2018-05-31 06:05:00Z / Precip Acc 2018-05-31 17:05:00Z,9999,9999,9999,None
LCLT1,Lenoir City,35.84,-84.3308,0.07,PC,RG,0,Hourly 2018-05-31 06:05:00Z / Precip Acc 2018-05-31 17:05:00Z,1586236100000,9999,9999,None
JSRN7,JONAS RIDGE,35.953611111111,-81.900277777778,0.08,PP,RR,1001,05 Min 2018-05-31 06:05:00Z / Hourly 2018-05-31 07:00:00Z,9999,9999,9999,None
COHG1,Cisco 5SE,34.9225,-84.659444444444,0.42,PC,RG,0,Precip Acc 2018-05-31 06:05:00Z / Precip Acc 2018-05-31 17:05:00Z,9999,9999,9999,None
TULG1,TALLULAH #1 RAWS,34.905833333333,-83.334444444444,0.02,PC,RG,0,Hourly 2018-05-31 06:06:00Z / Precip Acc 2018-05-31 17:06:00Z,9999,9999,9999,None
ONFG1,Adgateville 3SW,33.208333333333,-83.713611111111,0.01,PC,RG,0,Precip Acc 2018-05-31 06:06:00Z / Precip Acc 2018-05-31 17:06:00Z,9999,9999,9999,None
MAHN7,7 MILE RIDGE RAWS,35.803055555556,-82.650277777778,0.01,PC,RG,0,Hourly 2018-05-31 06:08:00Z / Precip Acc 2018-05-31 17:08:00Z,9999,9999,9999,None
CUWN7,JACKSON CO RAWS,35.316666666667,-83.2,0.01,PC,RG,0,Hourly 2018-05-31 06:10:00Z / Precip Acc 2018-05-31 17:10:00Z,9999,9999,9999,None
GUIN7,GUION FARM RAWS,35.213333333333,-82.59,0.01,PC,RG,0,Hourly 2018-05-31 06:10:00Z / Precip Acc 2018-05-31 17:10:00Z,9999,9999,9999,None
WSEV2,Wise,36.9681,-82.5597,0.66,PC,RG,0,Hourly 2018-05-31 06:11:00Z / Precip Acc 2018-05-31 17:11:00Z,9999,9999,9999,None
NCVN7,NORTH COVE PINNACLE RAWS,35.816666666667,-81.937222222222,0.03,PC,RG,0,Hourly 2018-05-31 06:16:00Z / Precip Acc 2018-05-31 17:16:00Z,9999,9999,9999,None
PIRW2,PIPESTEM RAWS,37.526388888889,-80.999166666667,0.15,PC,RG,0,Hourly 2018-05-31 06:17:00Z / Precip Acc 2018-05-31 17:17:00Z,9999,9999,9999,None
CCKT1,TELLICO RAWS NEAR TELLICO PLAINS,35.3814,-84.1231,0.11,PC,RG,0,Hourly 2018-05-31 06:19:00Z / Precip Acc 2018-05-31 17:19:00Z,1589244900000,9999,9999,None
SVNS1,Savannah,32.1,-81.08,0.24,PC,RG,0,Hourly 2018-05-31 06:23:00Z / Precip Acc 2018-05-31 17:23:00Z,9999,9999,9999,None
STCN7,STACKROCK CREEK RAWS LINVILLE,36.07,-81.799166666667,0.08,PC,RG,0,Hourly 2018-05-31 06:28:00Z / Precip Acc 2018-05-31 17:28:00Z,9999,9999,9999,None
IGGT1,Indian Grave Gap RAWS,35.6236,-83.8083,0.12,PC,RG,0,Hourly 2018-05-31 06:31:00Z / Precip Acc 2018-05-31 17:31:00Z,1589269200000,9999,9999,None
KNGS1,KINGS MTN RAWS,35.145555555556,-81.402222222222,0.03,PC,RG,0,Hourly 2018-05-31 06:31:00Z / Precip Acc 2018-05-31 17:31:00Z,9999,9999,9999,None
COWN7,COW MOUNTAIN RAWS,35.479444444444,-83.327222222222,0.01,PC,RG,0,Hourly 2018-05-31 06:32:00Z / Precip Acc 2018-05-31 17:32:00Z,9999,9999,9999,None
TOSN7,TOW STRING RAWS,35.536111111111,-83.285,0.07,PC,RG,0,Hourly 2018-05-31 06:32:00Z / Precip Acc 2018-05-31 17:32:00Z,9999,9999,9999,None
CHKN7,ROUND BOTTOM CG RAWS NPS,35.619722222222,-83.206944444444,0.04,PC,RG,0,Hourly 2018-05-31 06:57:00Z / Precip Acc 2018-05-31 17:57:00Z,9999,9999,9999,None
BSFT1,BIG SOUTH FORK,36.475,-84.654166666667,0.01,PC,RG,0,Hourly 2018-05-31 06:59:00Z / Precip Acc 2018-05-31 16:59:00Z,1557239700000,9999,9999,None
BCPN7,BAILEY CAMP,36.093333333333,-81.634444444444,0.04,PP,RR,1001,Hourly 2018-05-31 07:00:00Z / Hourly 2018-05-31 07:00:00Z,9999,9999,9999,None
SSPN7,SOUTH MTNS STATE PARK,35.5825,-81.636111111111,0.04,PP,RR,1001,Hourly 2018-05-31 09:00:00Z / Hourly 2018-05-31 14:00:00Z,9999,9999,9999,None
WLFN7,WOLF MOUNTAIN,35.0352777777778,-84.2836111111111,0.08,PP,RR,1001,05 Min 2018-05-31 09:55:00Z / Hourly 2018-05-31 17:00:00Z,1596234900000,9999,9999,None
RCHN7,DUCKETT TOP,35.765833333333,-82.84,0.04,PP,RR,1001,Hourly 2018-05-31 13:00:00Z / Hourly 2018-05-31 15:00:00Z,9999,9999,9999,None
CMTN7,CHRISTMOUNT RAIN,35.591388888889,-82.291111111111,0.12,PP,RR,1001,Hourly 2018-05-31 13:00:00Z / Hourly 2018-05-31 17:00:00Z,9999,9999,9999,None
RGCN7,RIDGECREST,35.625833333333,-82.273888888889,0.04,PP,RR,1001,Hourly 2018-05-31 13:00:00Z / Hourly 2018-05-31 13:00:00Z,9999,9999,9999,None
WSGN7,WESSER,35.346944444444,-83.352222222222,0.04,PP,RR,1001,Hourly 2018-05-31 14:00:00Z / Hourly 2018-05-31 16:00:00Z,9999,9999,9999,None
EKCN7,PARKWAY SCHOOL IFLOWS,36.2336111111111,-81.5625,0.04,PP,RR,1001,05 Min 2018-05-31 13:30:00Z / Hourly 2018-05-31 14:00:00Z,9999,9999,9999,None
MLRN7,MILLS RIVER,35.385555555556,-82.560833333333,0.12,PP,RR,5,Hourly 2018-05-31 16:00:00Z / 05 Min 2018-05-31 16:00:00Z,9999,9999,9999,None
NFRN7,NORTH FORK RAIN,35.709166666667,-82.328611111111,0.04,PP,RR,5,Hourly 2018-05-31 16:00:00Z / 05 Min 2018-05-31 16:00:00Z,9999,9999,9999,None
GTFT1,Grotto Falls TN,35.693888888889,-83.466666666667,0.4,PP,RR,5,Hourly 2018-05-31 17:00:00Z / 05 Min 2018-05-31 17:25:00Z,1584264710000,9999,9999,None
NERN7,MF NEW RIVER IFLOWS SG,36.2044444444444,-81.6494444444444,0.02,PP,RR,5,Hourly 2018-05-31 17:00:00Z / 05 Min 2018-05-31 17:05:00Z,9999,9999,9999,None
RBWT1,BRENTWOOD,36.041944444444,-86.875277777778,0.05,PP,RZ,1001,Hourly 2018-05-31 17:00:00Z / Hourly 2018-05-31 17:00:00Z,9999,9999,9999,None
GLBN7,GLOBE,36.038333333333,-81.712222222222,0.04,PP,RR,5,05 Min 2018-05-31 17:25:00Z / 05 Min 2018-05-31 17:25:00Z,9999,9999,9999,None
