lid,name,lat,lon,value,pe,ts,dur,obstime,zonenum,ffg,ratio,topperformer
NPOL1,North Pole,90.00,00.00,0.00,RR,ts,1001,00-00-0000 00:00:00/00-00-0000 00:00:00,NCZ000,100.00,0,None
CUXA1,Cullman Ag Station,34.19555,-86.79638,0.18,PP,RG,5,Hourly 2018-06-28 21:00:00Z / 05 Min 2018-06-29 01:40:00Z,9999,9999,9999,None
LCXA1,Lawrence County Airport COOP-M,34.6602777777778,-87.3461111111111,0.24,PP,RG,5,Hourly 2018-06-28 21:00:00Z / 05 Min 2018-06-29 01:40:00Z,9999,9999,9999,None
VHXA1,Valley Head HCN-M,34.5652777777778,-85.6169444444444,0.06,PP,RG,5,Hourly 2018-06-28 21:00:00Z / 05 Min 2018-06-29 01:35:00Z,9999,9999,9999,None
SMCA1,Crossville Ag Station,34.285,-85.96222,0.21,PP,RG,5,Hourly 2018-06-28 21:00:00Z / 05 Min 2018-06-29 02:10:00Z,9999,9999,9999,None
SCXA1,Scottsboro Airport,34.694167,-85.99972,0.06,PP,RG,5,Hourly 2018-06-28 21:00:00Z / 05 Min 2018-06-29 01:35:00Z,9999,9999,9999,None
KNYN7,#21 KENNEDY JR HIGH SCHOOL,35.153611111111,-80.955833333333,0.23,PC,RR,0,Hourly 2018-06-28 21:00:00Z / Precip Acc 2018-06-29 02:10:00Z,9999,9999,9999,None
FRTVL,Fort Valley,32.54,-83.9,0.02,PC,RZ,0,Precip Acc 2018-06-28 20:20:00Z / Precip Acc 2018-06-29 02:15:00Z,9999,9999,9999,None
C0699,Newnan,33.39,-84.74,0.1,PC,RZ,0,Precip Acc 2018-06-28 20:21:21Z / Precip Acc 2018-06-29 02:06:29Z,9999,9999,9999,None
AT326,Walland,35.764,-83.758,0.01,PC,RZ,0,Precip Acc 2018-06-28 20:21:25Z / Precip Acc 2018-06-29 02:09:57Z,1586267230000,2.62,0.4,None
C7619,Temple,33.79452,-84.99432,0.13,PC,RZ,0,Precip Acc 2018-06-28 20:22:01Z / Precip Acc 2018-06-29 02:05:20Z,9999,9999,9999,None
C0041,Brunswick,31.24,-81.5,0.16,PC,RZ,0,Precip Acc 2018-06-28 20:22:10Z / Precip Acc 2018-06-29 02:12:08Z,9999,9999,9999,None
AS642,Dallas,33.94767,-84.844,0.2,PC,RZ,0,Precip Acc 2018-06-28 20:22:43Z / Precip Acc 2018-06-29 02:11:27Z,9999,9999,9999,None
DCU,Decatur ASOS / Pryor Field,34.6525,-86.9452777777778,0.03,PP,RZ,1001,Hourly 2018-06-28 20:23:00Z / Hourly 2018-06-29 02:00:00Z,9999,9999,9999,None
F2355,Chattanooga,35.102,-85.286,0.01,PC,RZ,0,Precip Acc 2018-06-28 20:23:32Z / Precip Acc 2018-06-29 02:13:51Z,1594219620000,2.48,0.4,MRMS * 1.0=0.01
E3897,Kingston,35.8,-84.59,0.01,PC,RZ,0,Precip Acc 2018-06-28 20:23:53Z / Precip Acc 2018-06-29 02:08:49Z,1586217900000,1.93,0.5,None
LOKMT,Lookout Mountain,34.98,-85.36,0.02,PC,RZ,0,Precip Acc 2018-06-28 20:24:00Z / Precip Acc 2018-06-29 02:14:00Z,9999,9999,9999,None
AS188,Hixson,35.13,-85.2,0.01,PC,RZ,0,Precip Acc 2018-06-28 20:25:48Z / Precip Acc 2018-06-29 02:06:17Z,1594253100000,2.18,0.5,None
CSG,COLUMBUS AIRPORT,32.516111111111,-84.942222222222,0.25,PP,RZ,1001,Hourly 2018-06-28 20:30:00Z / Hourly 2018-06-29 02:00:00Z,9999,9999,9999,None
DFYG1,Dames Ferry,33.016666666667,-83.727222222222,0.04,PC,RG,0,Precip Acc 2018-06-28 20:30:00Z / Precip Acc 2018-06-29 02:00:00Z,9999,9999,9999,None
PTBT1,Petersburg,35.3266666666667,-86.6538888888889,0.07,PC,RG,0,Hourly 2018-06-28 21:00:00Z / Precip Acc 2018-06-29 01:30:00Z,9999,9999,9999,None
HILG1,Frolona,33.340555555556,-85.226944444444,0.5,PC,RG,0,Precip Acc 2018-06-28 20:30:00Z / Precip Acc 2018-06-29 01:45:00Z,9999,9999,9999,None
WHGG1,Snake Cr Res Tailrace,33.527222222222,-84.936388888889,0.13,PC,RG,0,Precip Acc 2018-06-28 20:30:00Z / Precip Acc 2018-06-29 02:00:00Z,9999,9999,9999,None
IWTG1,Irwinton,32.766388888889,-83.168055555556,0.01,PC,RG,0,Precip Acc 2018-06-28 20:30:00Z / Precip Acc 2018-06-29 01:30:00Z,9999,9999,9999,None
OTKG1,Calhoun,34.495555555556,-84.965277777778,0.23,PC,RG,0,Precip Acc 2018-06-28 20:30:00Z / Precip Acc 2018-06-29 02:00:00Z,9999,9999,9999,None
CTRG1,Carters Dam,34.615833333333,-84.670555555556,0.01,PC,RG,0,Precip Acc 2018-06-28 20:30:00Z / Precip Acc 2018-06-29 01:15:00Z,9999,9999,9999,None
NDYG1,Blackwells,34.056388888889,-84.535555555556,0.02,PC,RG,0,Precip Acc 2018-06-28 20:30:00Z / Precip Acc 2018-06-29 01:30:00Z,9999,9999,9999,None
SEPG1,East Point,33.683888888889,-84.415277777778,0.12,PC,RG,0,Precip Acc 2018-06-28 20:30:00Z / Precip Acc 2018-06-29 01:15:00Z,9999,9999,9999,None
CEHG1,Centralhatchee,33.3919444444444,-85.1136111111111,0.22,PC,RG,0,Precip Acc 2018-06-28 20:30:00Z / Precip Acc 2018-06-29 01:45:00Z,9999,9999,9999,None
NATG1,Northwest Austell,33.817777777778,-84.650277777778,0.16,PC,RG,0,Precip Acc 2018-06-28 20:30:00Z / Precip Acc 2018-06-29 01:45:00Z,9999,9999,9999,None
DBNG1,Dublin,32.544444444444,-82.894722222222,0.08,PC,RG,0,Precip Acc 2018-06-28 20:30:00Z / Precip Acc 2018-06-29 01:45:00Z,9999,9999,9999,None
CBUG1,Columbus,32.472777777778,-84.996666666667,0.16,PC,RG,0,Precip Acc 2018-06-28 20:30:00Z / Precip Acc 2018-06-29 02:00:00Z,9999,9999,9999,None
LHBG1,Lake Horton,33.3186111111111,-84.4186111111111,0.02,PC,RG,0,Precip Acc 2018-06-28 20:30:00Z / Precip Acc 2018-06-29 01:15:00Z,9999,9999,9999,None
BYNG1,Byron,32.691944444444,-83.701111111111,0.01,PC,RG,0,Precip Acc 2018-06-28 20:30:00Z / Precip Acc 2018-06-29 01:15:00Z,9999,9999,9999,None
UNIG1,Union,32.152777777778,-84.905833333333,0.52,PC,RG,0,Precip Acc 2018-06-28 20:30:00Z / Precip Acc 2018-06-29 01:45:00Z,9999,9999,9999,None
RFDG1,Rocky Ford,32.9822222222222,-81.8408333333333,0.01,PC,RG,0,Hourly 2018-06-28 21:00:00Z / Precip Acc 2018-06-29 02:00:00Z,9999,9999,9999,None
NICG1,Mableton,33.803333333333,-84.521388888889,0.19,PC,RG,0,Precip Acc 2018-06-28 20:30:00Z / Precip Acc 2018-06-29 02:00:00Z,9999,9999,9999,None
ENGG1,New England,34.8975,-85.463055555556,0.04,PC,RG,0,Precip Acc 2018-06-28 20:30:00Z / Precip Acc 2018-06-29 02:00:00Z,9999,9999,9999,None
NPTG1,Chamblee,33.87,-84.2947222222222,0.02,PC,RG,0,Precip Acc 2018-06-28 20:30:00Z / Precip Acc 2018-06-29 01:45:00Z,9999,9999,9999,None
ETOT1,ETOWAH,35.33,-84.520833333333,0.01,PC,RG,0,Hourly 2018-06-28 21:00:00Z / Precip Acc 2018-06-29 02:00:00Z,1595252310000,2.16,0.5,DHR * 1.0=0.01
NCKG1,Buckhead,33.869166666667,-84.378888888889,0.03,PC,RG,0,Precip Acc 2018-06-28 20:30:00Z / Precip Acc 2018-06-29 01:15:00Z,9999,9999,9999,None
MTOG1,Pine Mountain,32.8325,-84.8436111111111,0.11,PC,RG,0,Precip Acc 2018-06-28 20:30:00Z / Precip Acc 2018-06-29 01:45:00Z,9999,9999,9999,None
ARCG1,Armuchee,34.360833333333,-85.140277777778,0.1,PC,RG,0,Precip Acc 2018-06-28 20:30:00Z / Precip Acc 2018-06-29 01:45:00Z,9999,9999,9999,None
SMCG1,Marietta,33.979166666667,-84.452222222222,0.01,PC,RG,0,Precip Acc 2018-06-28 20:30:00Z / Precip Acc 2018-06-29 01:30:00Z,9999,9999,9999,None
DLNG1,Dalton,34.788333333333,-84.975,0.01,PC,RG,0,Precip Acc 2018-06-28 20:30:00Z / Precip Acc 2018-06-29 02:00:00Z,9999,9999,9999,None
AANG1,Atlanta,33.819444444444,-84.407777777778,0.05,PC,RG,0,Precip Acc 2018-06-28 20:30:00Z / Precip Acc 2018-06-29 02:00:00Z,9999,9999,9999,None
DERT1,DEROSSETT,35.963055555556,-85.281388888889,0.01,PC,RG,0,Hourly 2018-06-28 21:00:00Z / Precip Acc 2018-06-29 02:15:00Z,9999,9999,9999,None
LBRG1,Lumber City,31.918333333333,-82.673888888889,0.02,PC,RG,0,Precip Acc 2018-06-28 20:30:00Z / Precip Acc 2018-06-29 01:45:00Z,9999,9999,9999,None
NOSG1,Powder Springs,33.859166666667,-84.652777777778,0.16,PC,RG,0,Precip Acc 2018-06-28 20:30:00Z / Precip Acc 2018-06-29 01:30:00Z,9999,9999,9999,None
PKST1,PARKSVILLE,35.095,-84.649166666667,0.02,PC,RG,0,Hourly 2018-06-28 21:00:00Z / Precip Acc 2018-06-29 01:30:00Z,1596211390000,2.44,0.8,DPR * 1.0=0.02
DOGG1,Fairplay,33.653888888889,-84.821111111111,0.16,PC,RG,0,Precip Acc 2018-06-28 20:30:00Z / Precip Acc 2018-06-29 01:15:00Z,9999,9999,9999,None
OHCG1,Hamilton,32.6883333333333,-84.8566666666667,0.17,PC,RG,0,Precip Acc 2018-06-28 20:30:00Z / Precip Acc 2018-06-29 01:45:00Z,9999,9999,9999,None
NDPT1,NORMANDY DAM,35.465277777778,-86.247222222222,0.01,PC,RG,0,Hourly 2018-06-28 21:00:00Z / Precip Acc 2018-06-29 01:45:00Z,9999,9999,9999,None
PNFG1,Penfield,33.721111111111,-83.295555555556,0.03,PC,RG,0,Hourly 2018-06-28 21:00:00Z / Precip Acc 2018-06-29 02:00:00Z,9999,9999,9999,None
CLUG1,Carsonville Hwy. 19,32.721388888889,-84.2325,0.01,PC,RG,0,Hourly 2018-06-28 21:00:00Z / Precip Acc 2018-06-29 01:45:00Z,9999,9999,9999,None
MNTG1,Montezuma,32.293055555556,-84.043611111111,0.08,PC,RG,0,Precip Acc 2018-06-28 20:30:00Z / Precip Acc 2018-06-29 01:15:00Z,9999,9999,9999,None
CLBT1,Columbia,35.663611111111,-87.033333333333,0.04,PC,RG,0,Hourly 2018-06-28 21:00:00Z / Precip Acc 2018-06-29 01:15:00Z,9999,9999,9999,None
CLAT1,Celina,36.554166666667,-85.514444444444,0.01,PC,RG,0,Hourly 2018-06-28 21:00:00Z / Precip Acc 2018-06-29 01:30:00Z,9999,9999,9999,None
CCFG1,Flintstone,34.9572,-85.3344,0.04,PC,RG,0,Precip Acc 2018-06-28 20:30:00Z / Precip Acc 2018-06-29 01:30:00Z,9999,9999,9999,None
UPAG1,Fort Benning,32.413333333333,-84.82,0.21,PC,RG,0,Precip Acc 2018-06-28 20:30:00Z / Precip Acc 2018-06-29 01:30:00Z,9999,9999,9999,None
NBSG1,Big Shanty / Kennesaw,34.0218,-84.5529,0.01,PC,RG,0,Precip Acc 2018-06-28 20:30:00Z / Precip Acc 2018-06-29 02:15:00Z,9999,9999,9999,None
NPBG1,Atlanta,33.831388888889,-84.342777777778,0.02,PC,RG,0,Precip Acc 2018-06-28 20:30:00Z / Precip Acc 2018-06-29 02:15:00Z,9999,9999,9999,None
CVLG1,Allatoona Dam,34.162777777778,-84.727777777778,0.06,PC,RG,0,Precip Acc 2018-06-28 20:30:00Z / Precip Acc 2018-06-29 01:15:00Z,9999,9999,9999,None
WTPG1,West Point,32.886111111111,-85.182222222222,0.93,PC,RG,0,Precip Acc 2018-06-28 20:30:00Z / Precip Acc 2018-06-29 02:00:00Z,9999,9999,9999,None
RKMG1,Rockmart,33.998611111111,-85.0525,0.17,PC,RG,0,Precip Acc 2018-06-28 20:30:00Z / Precip Acc 2018-06-29 01:30:00Z,9999,9999,9999,None
PBCV2,POUND RIVER BELOW COLD CAMP CREEK NEAR POUND,37.121944444444,-82.598611111111,0.01,PC,RG,0,Hourly 2018-06-28 21:00:00Z / Precip Acc 2018-06-29 01:45:00Z,1504266100000,2.32,0.4,None
SMAG1,Smyrna,33.893611111111,-84.457777777778,0.03,PC,RG,0,Precip Acc 2018-06-28 20:30:00Z / Precip Acc 2018-06-29 02:00:00Z,9999,9999,9999,None
LMCG1,Below Lake McIntosh,33.360277777778,-84.586388888889,0.09,PC,RG,0,Precip Acc 2018-06-28 20:30:00Z / Precip Acc 2018-06-29 02:00:00Z,9999,9999,9999,None
CATG1,Carters,34.603611111111,-84.695555555556,0.01,PC,RG,0,Precip Acc 2018-06-28 20:30:00Z / Precip Acc 2018-06-29 01:30:00Z,9999,9999,9999,None
REDG1,Reidsville 3W,32.078333333333,-82.1775,0.59,PC,RG,0,Hourly 2018-06-28 21:00:00Z / Precip Acc 2018-06-29 02:00:00Z,9999,9999,9999,None
MYRG1,Conyers below Milstead,33.666944444444,-83.938055555556,0.03,PC,RG,0,Precip Acc 2018-06-28 20:30:00Z / Precip Acc 2018-06-29 01:30:00Z,9999,9999,9999,None
GFNG1,Griffin,33.271666666667,-84.236388888889,0.01,PC,RG,0,Precip Acc 2018-06-28 20:30:00Z / Precip Acc 2018-06-29 02:00:00Z,9999,9999,9999,None
SWOG1,Swainsboro,32.440277777778,-82.382222222222,0.07,PC,RG,0,Precip Acc 2018-06-28 20:30:00Z / Precip Acc 2018-06-29 01:30:00Z,9999,9999,9999,None
RCDG1,Dallas,34.078972,-84.854444,0.11,PC,RG,0,Precip Acc 2018-06-28 20:30:00Z / Precip Acc 2018-06-29 01:30:00Z,9999,9999,9999,None
SNKG1,Whitesburg,33.529444444444,-84.928333333333,0.14,PC,RG,0,Precip Acc 2018-06-28 20:30:00Z / Precip Acc 2018-06-29 01:45:00Z,9999,9999,9999,None
DLCG1,Panthersville,33.705555555556,-84.2925,0.04,PC,RG,0,Precip Acc 2018-06-28 20:30:00Z / Precip Acc 2018-06-29 02:00:00Z,9999,9999,9999,None
RTMG1,Rome US Hwy. 27,34.260555555556,-85.170833333333,0.22,PC,RG,0,Hourly 2018-06-28 21:00:00Z / Precip Acc 2018-06-29 01:45:00Z,9999,9999,9999,None
NRVG1,Franklin,33.235277777778,-84.987777777778,0.16,PC,RG,0,Precip Acc 2018-06-28 20:30:00Z / Precip Acc 2018-06-29 02:00:00Z,9999,9999,9999,None
CCDG1,Cedartown,34.061388888889,-85.313055555556,0.14,PC,RG,0,Precip Acc 2018-06-28 20:30:00Z / Precip Acc 2018-06-29 01:45:00Z,9999,9999,9999,None
VNPG1,Vinings/Sandy Springs,33.902222,-84.4416667,0.02,PC,RG,0,Precip Acc 2018-06-28 20:30:00Z / Precip Acc 2018-06-29 01:30:00Z,9999,9999,9999,None
BVLG1,Byromville,32.195555555556,-83.902222222222,0.14,PC,RG,0,Precip Acc 2018-06-28 20:30:00Z / Precip Acc 2018-06-29 01:45:00Z,9999,9999,9999,None
ASTG1,Austell 6S,33.720833333333,-84.615,0.17,PC,RG,0,Precip Acc 2018-06-28 20:30:00Z / Precip Acc 2018-06-29 02:00:00Z,9999,9999,9999,None
FBNG1,Campbellton,33.656666666667,-84.673611111111,0.14,PC,RG,0,Precip Acc 2018-06-28 20:30:00Z / Precip Acc 2018-06-29 01:30:00Z,9999,9999,9999,None
WCSG1,Southwest Fayetteville,33.4213888888889,-84.4927777777778,0.1,PC,RG,0,Precip Acc 2018-06-28 20:30:00Z / Precip Acc 2018-06-29 01:15:00Z,9999,9999,9999,None
OLYG1,Austell,33.836111111111,-84.631666666667,0.19,PC,RG,0,Precip Acc 2018-06-28 20:30:00Z / Precip Acc 2018-06-29 01:45:00Z,9999,9999,9999,None
SHPG1,Sharpsburg,33.389166666667,-84.623333333333,0.1,PC,RG,0,Precip Acc 2018-06-28 20:30:00Z / Precip Acc 2018-06-29 01:30:00Z,9999,9999,9999,None
AUSG1,Austell,33.776388888889,-84.615555555556,0.23,PC,RG,0,Hourly 2018-06-28 21:00:00Z / Precip Acc 2018-06-29 01:45:00Z,9999,9999,9999,None
HCCG1,Lumpkin,32.0511111111111,-84.7763888888889,0.44,PC,RG,0,Precip Acc 2018-06-28 20:30:00Z / Precip Acc 2018-06-29 01:45:00Z,9999,9999,9999,None
MANT1,Manchester,35.471111111111,-86.083055555556,0.06,PC,RG,0,Hourly 2018-06-28 21:00:00Z / Precip Acc 2018-06-29 01:30:00Z,9999,9999,9999,None
PSKT1,Pulaski TVA,35.188888888889,-87.031666666667,0.06,PC,RG,0,Hourly 2018-06-28 21:00:00Z / Precip Acc 2018-06-29 01:15:00Z,9999,9999,9999,None
SHLG1,Griffin,33.257222222222,-84.3625,0.01,PC,RG,0,Precip Acc 2018-06-28 20:30:00Z / Precip Acc 2018-06-29 01:45:00Z,9999,9999,9999,None
MUCG1,Americus,32.083055555556,-84.258055555556,0.09,PC,RG,0,Precip Acc 2018-06-28 20:30:00Z / Precip Acc 2018-06-29 01:45:00Z,9999,9999,9999,None
SEWT1,Sewanee TVA,35.1969444444444,-85.9180555555556,0.05,PC,RG,0,Hourly 2018-06-28 21:00:00Z / Precip Acc 2018-06-29 01:30:00Z,9999,9999,9999,None
CALG1,Calhoun,34.518888888889,-84.954444444444,0.14,PC,RG,0,Precip Acc 2018-06-28 20:30:00Z / Precip Acc 2018-06-29 01:15:00Z,9999,9999,9999,None
CANG1,Carrollton,33.597222222222,-85.080277777778,0.2,PC,RG,0,Precip Acc 2018-06-28 20:30:00Z / Precip Acc 2018-06-29 02:00:00Z,9999,9999,9999,None
FLPG1,Flippen,33.492777777778,-84.245,0.02,PC,RG,0,Precip Acc 2018-06-28 20:30:00Z / Precip Acc 2018-06-29 01:45:00Z,9999,9999,9999,None
UNVT1,Unionville,35.6211111111111,-86.5863888888889,0.01,PC,RG,0,Hourly 2018-06-28 21:00:00Z / Precip Acc 2018-06-29 01:15:00Z,9999,9999,9999,None
CTVG1,Cartersville,34.142777777778,-84.839166666667,0.11,PC,RG,0,Precip Acc 2018-06-28 20:30:00Z / Precip Acc 2018-06-29 02:00:00Z,9999,9999,9999,None
HAWG1,Hawkinsville,32.280555555556,-83.461111111111,0.06,PC,RG,0,Precip Acc 2018-06-28 20:30:00Z / Precip Acc 2018-06-29 01:45:00Z,9999,9999,9999,None
STHG1,Hapeville,33.678888888889,-84.358055555556,0.15,PC,RG,0,Precip Acc 2018-06-28 20:30:00Z / Precip Acc 2018-06-29 02:15:00Z,9999,9999,9999,None
FRNG1,Franklin,33.278055555556,-85.100555555556,0.71,PC,RG,0,Precip Acc 2018-06-28 20:30:00Z / Precip Acc 2018-06-29 02:00:00Z,9999,9999,9999,None
PRCG1,Atlanta,33.794166666667,-84.474444444444,0.2,PC,RG,0,Precip Acc 2018-06-28 20:30:00Z / Precip Acc 2018-06-29 02:15:00Z,9999,9999,9999,None
ELKT1,Elkton,35.0363888888889,-86.8875,0.06,PC,RG,0,Hourly 2018-06-28 21:00:00Z / Precip Acc 2018-06-29 01:15:00Z,9999,9999,9999,None
MCFG1,North Fayetteville,33.5413888888889,-84.4841666666667,0.09,PC,RG,0,Precip Acc 2018-06-28 20:30:00Z / Precip Acc 2018-06-29 01:15:00Z,9999,9999,9999,None
LKPG1,Lake Kedron,33.4236111111111,-84.5777777777778,0.1,PC,RG,0,Precip Acc 2018-06-28 20:30:00Z / Precip Acc 2018-06-29 01:15:00Z,9999,9999,9999,None
COOG1,Coosa 7SW,34.2016666666667,-85.4475,0.01,PC,RG,0,Precip Acc 2018-06-28 20:30:00Z / Precip Acc 2018-06-29 01:45:00Z,9999,9999,9999,None
LPPG1,Lake Peachtree,33.3844444444444,-84.5736111111111,0.07,PC,RG,0,Precip Acc 2018-06-28 20:30:00Z / Precip Acc 2018-06-29 01:15:00Z,9999,9999,9999,None
POWG1,Powder Springs,33.880833333333,-84.707222222222,0.15,PC,RG,0,Precip Acc 2018-06-28 20:30:00Z / Precip Acc 2018-06-29 01:45:00Z,9999,9999,9999,None
BGLT1,BIG LICK,35.817222222222,-85.036111111111,0.02,PC,RG,0,Hourly 2018-06-28 21:00:00Z / Precip Acc 2018-06-29 02:00:00Z,9999,9999,9999,None
VIXG1,Vinings Cobb Parkway,33.868055555556,-84.453888888889,0.04,PC,RG,0,Precip Acc 2018-06-28 20:30:00Z / Precip Acc 2018-06-29 01:45:00Z,9999,9999,9999,None
MARG1,Marietta,33.953888888889,-84.443333333333,0.01,PC,RG,0,Precip Acc 2018-06-28 20:30:00Z / Precip Acc 2018-06-29 01:45:00Z,9999,9999,9999,None
PDSG1,Powder Springs,33.827222222222,-84.719722222222,0.19,PC,RG,0,Precip Acc 2018-06-28 20:30:00Z / Precip Acc 2018-06-29 01:45:00Z,9999,9999,9999,None
TEXG1,Texas,33.2275,-85.2205555555555,0.25,PC,RG,0,Precip Acc 2018-06-28 20:30:00Z / Precip Acc 2018-06-29 01:45:00Z,9999,9999,9999,None
RMBG1,Rome Mayos Bar L & D Park,34.200277777778,-85.256666666667,0.18,PC,RG,0,Precip Acc 2018-06-28 20:30:00Z / Precip Acc 2018-06-29 01:45:00Z,9999,9999,9999,None
NOOG1,Woodstock,34.068333333333,-84.535555555556,0.01,PC,RG,0,Precip Acc 2018-06-28 20:30:00Z / Precip Acc 2018-06-29 01:30:00Z,9999,9999,9999,None
BKCG1,Tucker,33.8352777777778,-84.2569444444444,0.01,PC,RG,0,Precip Acc 2018-06-28 20:30:00Z / Precip Acc 2018-06-29 01:45:00Z,9999,9999,9999,None
WETG1,West Point Dam,32.918333333333,-85.188333333333,0.76,PC,RG,0,Precip Acc 2018-06-28 20:30:00Z / Precip Acc 2018-06-29 02:15:00Z,9999,9999,9999,None
CNTT1,Centerville,35.808333333333,-87.438055555556,0.01,PC,RG,0,Hourly 2018-06-28 21:00:00Z / Precip Acc 2018-06-29 02:15:00Z,9999,9999,9999,None
MTVG1,Mount Vernon,32.191111111111,-82.631666666667,0.11,PC,RG,0,Precip Acc 2018-06-28 20:30:00Z / Precip Acc 2018-06-29 02:00:00Z,9999,9999,9999,None
COBG1,Decatur,33.709444444444,-84.239444444444,0.01,PC,RG,0,Precip Acc 2018-06-28 20:30:00Z / Precip Acc 2018-06-29 01:30:00Z,9999,9999,9999,None
CTWG1,Cedartown,33.995833333333,-85.264722222222,0.15,PC,RG,0,Precip Acc 2018-06-28 20:30:00Z / Precip Acc 2018-06-29 01:30:00Z,9999,9999,9999,None
MOLG1,Molena,33.0475,-84.526388888889,0.01,PC,RG,0,Precip Acc 2018-06-28 20:30:00Z / Precip Acc 2018-06-29 02:00:00Z,9999,9999,9999,None
UTYG1,West Atlanta,33.743333333333,-84.568333333333,0.15,PC,RG,0,Precip Acc 2018-06-28 20:30:00Z / Precip Acc 2018-06-29 02:15:00Z,9999,9999,9999,None
MUGT1,Murfreesboro,35.902777777778,-86.43,0.04,PC,RG,0,Hourly 2018-06-28 21:00:00Z / Precip Acc 2018-06-29 01:30:00Z,9999,9999,9999,None
WCEG1,Northwest Fayetteville,33.4872222222222,-84.5083333333333,0.12,PC,RG,0,Precip Acc 2018-06-28 20:30:00Z / Precip Acc 2018-06-29 01:15:00Z,9999,9999,9999,None
YJCG1,Hogansville,33.139444444444,-84.975277777778,0.09,PC,RG,0,Precip Acc 2018-06-28 20:30:00Z / Precip Acc 2018-06-29 01:30:00Z,9999,9999,9999,None
PICV2,POUND RIVER ABOVE INDIAN CREEK NEAR POUND,37.123888888889,-82.608055555556,0.01,PC,RG,0,Hourly 2018-06-28 21:00:00Z / Precip Acc 2018-06-29 01:45:00Z,1504267000000,2.32,0.4,None
MAHG1,Mars Hill,33.995277777778,-84.693055555556,0.1,PC,RG,0,Precip Acc 2018-06-28 20:30:00Z / Precip Acc 2018-06-29 01:15:00Z,9999,9999,9999,None
SHOG1,Panthersville,33.693333333333,-84.253888888889,0.01,PC,RG,0,Precip Acc 2018-06-28 20:30:00Z / Precip Acc 2018-06-29 01:15:00Z,9999,9999,9999,None
CCKG1,Kenwood,33.5258333333333,-84.4338888888889,0.09,PC,RG,0,Precip Acc 2018-06-28 20:30:00Z / Precip Acc 2018-06-29 01:15:00Z,9999,9999,9999,None
WSEG1,Woolsey,33.359722222222,-84.394444444444,0.05,PC,RG,0,Precip Acc 2018-06-28 20:30:00Z / Precip Acc 2018-06-29 01:45:00Z,9999,9999,9999,None
ABBG1,Abbeville,31.996666666667,-83.279166666667,0.04,PC,RG,0,Precip Acc 2018-06-28 20:30:00Z / Precip Acc 2018-06-29 01:45:00Z,9999,9999,9999,None
NCDG1,Chamblee,33.897777777778,-84.345555555556,0.01,PC,RG,0,Precip Acc 2018-06-28 20:30:00Z / Precip Acc 2018-06-29 01:30:00Z,9999,9999,9999,None
BVDN7,BREVARD DCP,35.236666666667,-82.7225,0.01,PC,RG,0,Hourly 2018-06-28 21:00:00Z / Precip Acc 2018-06-29 01:45:00Z,9999,9999,9999,None
BWNG1,Bowden,33.492777777778,-85.279166666667,0.18,PC,RG,0,Precip Acc 2018-06-28 20:30:00Z / Precip Acc 2018-06-29 02:00:00Z,9999,9999,9999,None
WDCG1,Atlanta,33.8216666666667,-84.4388888888889,0.08,PC,RG,0,Precip Acc 2018-06-28 20:30:00Z / Precip Acc 2018-06-29 01:45:00Z,9999,9999,9999,None
MPLT1,Mount Pleasant,35.531944444444,-87.205277777778,0.04,PC,RG,0,Hourly 2018-06-28 21:00:00Z / Precip Acc 2018-06-29 01:15:00Z,9999,9999,9999,None
WHTG1,Whitesburg,33.476944444444,-84.901111111111,0.13,PC,RG,0,Precip Acc 2018-06-28 20:30:00Z / Precip Acc 2018-06-29 01:15:00Z,9999,9999,9999,None
PELT1,Pelham,35.296666666667,-85.869722222222,0.03,PC,RG,0,Hourly 2018-06-28 21:00:00Z / Precip Acc 2018-06-29 02:00:00Z,9999,9999,9999,None
DWSG1,Dawsonville,34.357777777778,-84.113611111111,11.13,PC,RG,0,Precip Acc 2018-06-28 20:30:00Z / Precip Acc 2018-06-29 02:00:00Z,9999,9999,9999,None
NKJT1,Nickajack Dam (Jasper 5S),35,-85.616666666667,0.01,PC,RG,0,Hourly 2018-06-28 21:00:00Z / Precip Acc 2018-06-29 01:45:00Z,1594211900000,2.32,0.4,MRMS * 1.0=0.01
RDBG1,Redbud,34.564166666667,-84.833055555556,0.03,PC,RG,0,Precip Acc 2018-06-28 20:30:00Z / Precip Acc 2018-06-29 02:00:00Z,9999,9999,9999,None
CLFG1,Clinchfield,32.426666666667,-83.644444444444,0.03,PC,RG,0,Precip Acc 2018-06-28 20:30:00Z / Precip Acc 2018-06-29 02:15:00Z,9999,9999,9999,None
MCRG1,McRae,31.991388888889,-82.921944444444,0.04,PC,RG,0,Precip Acc 2018-06-28 20:30:00Z / Precip Acc 2018-06-29 02:00:00Z,9999,9999,9999,None
THLT1,THORN HILL,36.295,-83.5877777777778,0.01,PC,RG,0,Hourly 2018-06-28 21:00:00Z / Precip Acc 2018-06-29 01:30:00Z,1590231820000,2.64,0.4,None
WALG1,Waleska,34.263333333333,-84.595555555556,0.02,PC,RG,0,Precip Acc 2018-06-28 20:30:00Z / Precip Acc 2018-06-29 01:15:00Z,9999,9999,9999,None
SMFG1,Starrs Mill,33.3283333333333,-84.5091666666667,0.05,PC,RG,0,Precip Acc 2018-06-28 20:30:00Z / Precip Acc 2018-06-29 01:15:00Z,9999,9999,9999,None
SCTG1,Scotland,32.052222222222,-82.815833333333,0.04,PC,RG,0,Precip Acc 2018-06-28 20:30:00Z / Precip Acc 2018-06-29 01:15:00Z,9999,9999,9999,None
COWN7,COW MOUNTAIN RAWS,35.479444444444,-83.327222222222,0.17,PC,RG,0,Hourly 2018-06-28 20:32:00Z / Precip Acc 2018-06-29 01:32:00Z,9999,9999,9999,None
C3112,Atlanta,33.8,-84.3,0.03,PC,RZ,0,Precip Acc 2018-06-28 20:32:04Z / Precip Acc 2018-06-29 02:12:05Z,9999,9999,9999,None
ABY,Albany Airport,31.5377777777778,-84.1938888888889,0.58,PP,RZ,1001,Hourly 2018-06-28 20:37:00Z / Hourly 2018-06-29 02:00:00Z,9999,9999,9999,None
FTY,ATLANTA FULTON COUNTY AP,33.7833333333333,-84.5277777777778,0.21,PP,RZ,1001,Hourly 2018-06-28 20:40:00Z / Hourly 2018-06-29 02:00:00Z,9999,9999,9999,None
MCN,Macon Airport,32.7,-83.65,0.01,PP,RZ,1001,Hourly 2018-06-28 21:00:00Z / Hourly 2018-06-29 02:00:00Z,9999,9999,9999,None
CMD,Vinemont-Cullman AP,34.27,-86.8583333333333,0.02,PP,RZ,1001,Hourly 2018-06-28 21:00:00Z / Hourly 2018-06-29 02:00:00Z,9999,9999,9999,None
FFC,Peachtree City,33.35,-84.5666666666667,0.07,PP,RZ,1001,Hourly 2018-06-28 21:00:00Z / Hourly 2018-06-29 02:00:00Z,9999,9999,9999,None
SAMV2,SAMUEL GROVE CHURCH IFLOWS,36.566388888889,-80.584444444444,0.16,PP,RR,1001,Hourly 2018-06-28 21:00:00Z / Hourly 2018-06-29 01:00:00Z,9999,9999,9999,None
RKGW2,RUCKER GAP IFLOWS,37.941944444444,-80.075277777778,0.12,PP,RR,1001,Hourly 2018-06-28 21:00:00Z / Hourly 2018-06-29 02:00:00Z,9999,9999,9999,None
8A0,Albertville AWOS,34.2291666666667,-86.2558333333333,0.05,PP,RZ,1001,Hourly 2018-06-28 21:00:00Z / Hourly 2018-06-29 02:00:00Z,9999,9999,9999,None
ATL,Atlanta Hartsfield Airport,33.63,-84.441666666667,0.08,PP,RZ,1001,Hourly 2018-06-28 21:00:00Z / Hourly 2018-06-29 02:00:00Z,9999,9999,9999,None
GIFT1,Grotto Falls,35.6806,-83.4637,0.04,PP,RR,1001,Hourly 2018-06-28 21:00:00Z / Hourly 2018-06-29 02:00:00Z,1584264710000,2.69,1.5,None
PDK,Atlanta Peachtree DeKalb Airport,33.875,-84.3022222222222,0.02,PP,RZ,1001,Hourly 2018-06-28 21:00:00Z / Hourly 2018-06-29 02:00:00Z,9999,9999,9999,None
NRKV2,NORTH FORK IFLOWS,37.454722222222,-80.528611111111,0.16,PP,RR,1001,Hourly 2018-06-28 21:00:00Z / Hourly 2018-06-29 01:00:00Z,9999,9999,9999,None
HSV,Huntsville ASOS / Jones Field,34.6438888888889,-86.7688888888889,0.02,PP,RZ,1001,Hourly 2018-06-28 21:00:00Z / Hourly 2018-06-29 02:00:00Z,9999,9999,9999,None
LBYV2,LITTLE BRUSHY IFLOWS,36.988055555556,-81.475555555556,0.01,PP,RR,1001,Hourly 2018-06-28 21:00:00Z / Hourly 2018-06-29 01:00:00Z,9999,9999,9999,None
MDQ,Meridianville AWOS / Mad Co Exec Arpt,34.86,-86.56,0.04,PP,RZ,1001,Hourly 2018-06-28 21:00:00Z / Hourly 2018-06-29 02:00:00Z,9999,9999,9999,None
WKHV2,WALKER HOUSE IFLOWS,36.836111111111,-81.578611111111,0.08,PP,RR,1001,Hourly 2018-06-28 21:00:00Z / Hourly 2018-06-29 01:00:00Z,9999,9999,9999,None
RMG,ROME AIRPORT,34.35,-85.1666666666667,0.2,PP,RZ,1001,Hourly 2018-06-28 21:00:00Z / Hourly 2018-06-29 02:00:00Z,9999,9999,9999,None
EJAG1,Chatsworth,34.758888888889,-84.766388888889,0.01,PC,RZ,0,Precip Acc 2018-06-28 21:02:00Z / Precip Acc 2018-06-29 02:02:00Z,9999,9999,9999,None
DLSG1,Dallas 3NE,33.942777777778,-84.791944444444,0.12,PC,RG,0,Precip Acc 2018-06-28 21:02:00Z / Precip Acc 2018-06-29 02:02:00Z,9999,9999,9999,None
NNAG1,NEWNAN 3WSW,33.365277777778,-84.859444444444,0.11,PC,RZ,0,Precip Acc 2018-06-28 21:02:00Z / Precip Acc 2018-06-29 02:02:00Z,9999,9999,9999,None
MRAG1,McRae,32.096388888889,-82.884166666667,0.06,PC,RG,0,Precip Acc 2018-06-28 21:03:00Z / Precip Acc 2018-06-29 02:03:00Z,9999,9999,9999,None
PLAG1,Plains 4ESE,32.110555555556,-84.184166666667,0.08,PC,RZ,0,Precip Acc 2018-06-28 21:03:00Z / Precip Acc 2018-06-29 02:03:00Z,9999,9999,9999,None
MDWG1,Midway,31.78,-81.44,0.47,PC,RZ,0,Hourly 2018-06-28 21:04:00Z / Precip Acc 2018-06-29 02:04:00Z,9999,9999,9999,None
CSFT1,CHUCK SWAN STATE FOREST,36.368888888889,-83.898611111111,0.03,PC,RG,0,Hourly 2018-06-28 21:05:00Z / Precip Acc 2018-06-29 02:05:00Z,1591219000000,2.55,1.2,None
BLDT1,BLEDSOE STATE FOREST,35.681944444444,-85.273333333333,0.02,PC,RZ,0,Hourly 2018-06-28 21:05:00Z / Precip Acc 2018-06-29 02:05:00Z,1561296450000,2.05,1.0,None
NAOG1,Naomi,34.695277777778,-85.173611111111,0.01,PC,RG,0,Precip Acc 2018-06-28 21:05:00Z / Precip Acc 2018-06-29 02:05:00Z,9999,9999,9999,None
BYRG1,Byromville,32.168055555556,-83.974722222222,0.06,PC,RG,0,Precip Acc 2018-06-28 21:05:00Z / Precip Acc 2018-06-29 02:05:00Z,9999,9999,9999,None
LSBT1,LEWISBURG TOWER RAWS,35.381666666667,-86.765833333333,0.17,PC,RZ,0,Hourly 2018-06-28 21:06:00Z / Precip Acc 2018-06-29 02:06:00Z,9999,9999,9999,None
PCFT1,Prentice Cooper State Forest,35.13,-85.43,0.01,PC,RG,0,Hourly 2018-06-28 21:06:00Z / Precip Acc 2018-06-29 02:06:00Z,9999,9999,9999,None
BURT1,BURNS RAWS,36.065,-87.283055555556,0.01,PC,RG,0,Hourly 2018-06-28 21:06:00Z / Precip Acc 2018-06-29 02:06:00Z,9999,9999,9999,None
LWBN7,LEWISBURG,35.998888888889,-82.431388888889,0.04,PP,RR,1001,Hourly 2018-06-28 22:00:00Z / Hourly 2018-06-29 00:00:00Z,9999,9999,9999,None
FBGG1,Fort Benning,32.396666666667,-84.87,0.21,PC,RG,0,Precip Acc 2018-06-28 21:10:00Z / Precip Acc 2018-06-29 02:10:00Z,9999,9999,9999,None
FCRT1,FORT CAMPBELL RAWS,36.625555555556,-87.536944444444,0.05,PC,RG,0,Hourly 2018-06-28 21:15:00Z / Precip Acc 2018-06-29 02:15:00Z,9999,9999,9999,None
CTFN7,TROUT FARM,35.577777777778,-83.261388888889,0.04,PP,RR,1001,05 Min 2018-06-28 21:20:00Z / Hourly 2018-06-28 22:00:00Z,9999,9999,9999,None
PKTN7,PUMPKINTOWN,35.252777777778,-83.245277777778,0.04,PP,RR,1001,05 Min 2018-06-28 21:30:00Z / Hourly 2018-06-28 22:00:00Z,9999,9999,9999,None
TUNN7,TUNI CREEK NC,35.088055555556,-83.738888888889,0.01,PP,RR,1001,05 Min 2018-06-28 22:30:00Z / Hourly 2018-06-28 23:00:00Z,1595294300000,3.23,0.3,None
ICRN7,CHARLEY RIDGE,35.279444444444,-82.995,0.04,PP,RR,1001,05 Min 2018-06-28 23:25:00Z / Hourly 2018-06-29 00:00:00Z,9999,9999,9999,None
OTTN7,OTTO,35.057777777778,-83.385277777778,0.01,PP,RR,5,Hourly 2018-06-29 01:00:00Z / 05 Min 2018-06-29 01:00:00Z,9999,9999,9999,None
JDRN7,JUDACULLA RIDGE,35.354444444444,-82.985,0.04,PP,RR,1001,05 Min 2018-06-29 01:05:00Z / Hourly 2018-06-29 02:00:00Z,9999,9999,9999,None
SLMN7,SUGARLOAF MTN,35.406666666667,-82.268333333333,0.04,PP,RR,1001,05 Min 2018-06-29 01:20:00Z / Hourly 2018-06-29 02:00:00Z,9999,9999,9999,None
